StationId,PollingStation,Lat,Lng,BoothType,Province,MaleBooths,FemaleBooths,MaleVoters,FemaleVoters
88,Govt Girls Higher Secondary School  Zarobi  (F) (P)*,34.02284,72.55324,Female,KPK,0,2,0,703
85,Govt:High School Zarobi (M) 1st PS (P)*,34.0237,72.55296,Male,KPK,2,0,827,0
86,Govt:High School Zarobi (M) 2nd P.S (P)*,34.02374,72.55302,Male,KPK,3,0,1237,0
87,Govt:High School Zarobi (M) 3rd P.S (P)*,34.02374,72.55305,Male,KPK,3,0,1278,0
81,Govt:Primary School No.2 Zarobi (M) 3rd PS (P)*,34.03245,72.56342,Male,KPK,2,0,913,0
80,Govt:Primary School No.2 Zarobi (M) 2nd PS (P)*,34.03249,72.56348,Male,KPK,3,0,1218,0
79,Govt:Primary School No.2 Zarobi (M) 1st PS (P)*,34.0325,72.56351,Male,KPK,3,0,1717,0
82,Govt: Girls Primary School No.1 Zarobi (F) (P)*,34.033,72.56464,Female,KPK,0,3,0,1516
36,Govt Girls High School Batakara (F) 1st PS (P)*,34.03462,72.60121,Female,KPK,0,2,0,1029
37,Govt Girls High School Batakara (F) 2nd PS (P)*,34.03462,72.60124,Female,KPK,0,3,0,1323
33,Govt:High School Batakara (M) 1st PS (P)*,34.03476,72.59949,Male,KPK,3,0,1390,0
34,Govt:High School  Batakara (M) 2nd PS (P)*,34.03476,72.59952,Male,KPK,3,0,1228,0
35,Govt:High School  Batakara (M) 3rd PS (P)*,34.03476,72.59955,Male,KPK,2,0,693,0
89,Govt Girls Primary School  No.2  Zarobi (F) 1st PS (P)*,34.03493,72.56288,Female,KPK,0,2,0,883
90,Govt Girls Primary School  No.2  Zarobi (F) 2nd PS (P)*,34.03493,72.56291,Female,KPK,0,3,0,1443
83,Govt: Girls Primary School No.3 Zarobi (F) 1st PS (P)*,34.03609,72.57468,Female,KPK,0,2,0,890
84,Govt: Girls Primary School No.3 Zarobi (F) 2nd PS (P)*,34.03609,72.57471,Female,KPK,0,2,0,949
26,Govt Primary School Gallah (Combined)  (P)*,34.04724,72.64362,Combined,KPK,2,1,730,592
76,Govt:Primary School Qadar Abad Khazana Kalabat (M) (P)*,34.04760368084909,72.54930807426966,Male,KPK,3,0,1410,0
24,Govt Girls High School  Pehur Himlet (Topi) (F) 1st PS(P)*,34.05338,72.64379,Female,KPK,0,2,0,987
30,Govt Girls High School  Pehur Himlet (Topi) (F) 2nd PS(P)*,34.05338,72.64382,Female,KPK,0,2,0,648
31,Govt Girls High School  Pehur Himlet (Topi) (F) 3rd PS(P)*,34.05346,72.64382,Female,KPK,0,1,0,467
22,Govt:High School Pehur Himlet (Topi) (M)  (P)*,34.0538,72.63624,Male,KPK,3,0,1319,0
27,Govt:Primary School Pehur Himlet (Topi) (M) 1st PS  (P)*,34.05412,72.6411,Male,KPK,2,0,888,0
28,Govt:Primary School Pehur Himlet (Topi) (M) 2nd PS  (P)*,34.05421,72.64114,Male,KPK,2,0,625,0
3,Govt Primary School No.2 Topi (E-I) (F) (P)*,34.06406,72.63168,Female,KPK,0,3,0,1522
11,Govt:Higher Secondary School Topi (W-I) (M) 1st PS (P)*,34.06741,72.61266,Male,KPK,3,0,1038,0
12,Govt:Higher Secondary School Topi (W-I) (M) 2nd PS (P)*,34.06747,72.61287,Male,KPK,3,0,1130,0
14,Govt:Higher Secondary School Topi (M) 3rd PS (P)*,34.06747,72.6129,Male,KPK,3,0,1536,0
64,Govt Primary School No.1 Musa Khel Kotha (M)  (P)*,34.06753082976324,72.58273597839175,Male,KPK,3,0,1285,0
19,Govt: Girls Degree College  Topi (M)3rd PS (P)*,34.06763,72.61089,Male,KPK,3,0,1295,0
67,Govt Girls Primary School No.3 Panjpao Kotha (F) 1st PS (P)*,34.06772682779894,72.58739669174778,Female,KPK,0,3,0,1417
68,Govt Girls Primary School No.3 Panjpao Kotha (F) 2nd PS (P)*,34.06773484954267,72.5874107247741,Female,KPK,0,3,0,1464
66,Govt Girls Primary School No.1 Kotha (M) 2nd PS (P)*,34.06778585566027,72.58123205960347,Male,KPK,3,0,1007,0
65,Govt Girls Primary School No.1 Kotha (M) 1st PS (P)*,34.06778634747475,72.58126367954665,Male,KPK,3,0,1364,0
15,Govt:Girls Degree College Topi (M) 1st PS (P)*,34.06789,72.6107,Male,KPK,3,0,1277,0
18,Govt: Girls Degree College Topi (M) 2nd PS (P)*,34.06789,72.61073,Male,KPK,3,0,1128,0
55,Govt:High School Kotha (M) 3rd PS (P)*,34.06864950667359,72.59006202658058,Male,KPK,3,0,1012,0
53,Govt:High School Kotha (M) 1st PS (P)*,34.06866735404885,72.59003275486249,Male,KPK,3,0,1449,0
54,Govt:High School Kotha (M) 2nd PS (P)*,34.068688816698504,72.5900480748541,Male,KPK,2,0,898,0
57,Govt Girls Higher Secondry School  Kotha (F) 2nd PS (P)*,34.069052058287255,72.58912872227877,Female,KPK,0,3,0,1432
13,Govt Girls Primary School No.2 Booba Khel Topi (W-I) (F)  (P)*,34.06908,72.6216,Female,KPK,0,3,0,1564
56,Govt Girls Higher Secondry School  Kotha (F) 1st PS (P)*,34.069084370784516,72.5891244740803,Female,KPK,0,2,0,980
62,Govt Primary School No.3  Kotha (F) 2nd PS (P)*,34.069290654143,72.58392523359808,Female,KPK,0,2,0,1314
63,Govt Primary School No.3  Kotha (F) 3rd PS (P)*,34.069320006703514,72.58391747807798,Female,KPK,0,2,0,957
61,Govt Primary School No.3  Kotha (F) 1st PS (P)*,34.069345995484,72.58393526848259,Female,KPK,0,2,0,852
20,Govt: Primary School No.4 Topi (F) 1st PS (P)*,34.0695,72.62187,Female,KPK,0,2,0,768
21,Govt: Primary School No.4 Topi (F) 2nd PS (P)*,34.06961,72.62179,Female,KPK,0,2,0,982
60,Govt: Primary School No.4  Kotha (M)  (P)*,34.07025186425241,72.58240414657904,Male,KPK,3,0,1316,0
16,Govt Girls Primary School No.3 (Jabagai)Topi (F) (P)*,34.07099,72.61537,Female,KPK,0,2,0,752
78,Govt Girls Middle School Kalabat (F) 2nd PS (P)*,34.07101797415203,72.54990883730733,Female,KPK,0,3,0,1139
77,Govt Girls Middle School Kalabat (F) 1st PS (P)*,34.0710354869989,72.54993909827157,Female,KPK,0,3,0,1600
59,Govt Girls Middle /Govt Girls Primary School No.2 Kotha (M) 2nd PS (P)*,34.07111,72.58305,Male,KPK,3,0,1428,0
58,Govt Girls Middle /Govt Girls Primary School No.2 Kotha (M) 1st PS (P)*,34.07113,72.58304,Male,KPK,3,0,1201,0
17,Govt:Primary School No.5 Taj Khan Topi (F) (P)*,34.07174,72.61973,Female,KPK,0,2,0,1081
75,Govt:Primary School No.1 Kalabat (M) 2nd PS (P)*,34.07223017139042,72.55000430206552,Male,KPK,2,0,835,0
74,Govt:Primary School No.1 Kalabat (M) 1st PS (P)*,34.07223549823336,72.55009367493537,Male,KPK,3,0,1219,0
32,Wapda Girls High  School Right Bank Colony Tarbella (Topi)  (F) 2nd PS (P)*,34.0735046325739,72.66235714417077,Female,KPK,0,2,0,589
25,Wapda Girls High  School Right Bank Colony Tarbella (Topi)  (F) 1st (P)*,34.07351,72.66235,Female,KPK,0,2,0,808
1,Govt High School No.2 Topi (M) 1st P.S (P)*,34.07431,72.62236,Male,KPK,2,0,1058,0
2,Govt High School No.2 Topi  (M) 2nd P.S (P)*,34.07431,72.62239,Male,KPK,3,0,1172,0
6,Govt: Middle School No.2 Topi (E-II) (M)  (P)*,34.07431,72.62657,Male,KPK,3,0,1070,0
5,Govt Primary School No.6 Topi (E-II) (M) 2nd P.S  (P)*,34.07456866915808,72.62590939367335,Male,KPK,3,0,1324,0
4,Govt Primary School No.6 Topi (E-II) (M) 1st P.S  (P)*,34.074592731214466,72.62584733931489,Male,KPK,3,0,1556,0
23,Wapda Boys High School Right Bank Colony Tarbella Topi (M)  1st PS (P)*,34.07486,72.66467,Male,KPK,3,0,1024,0
29,Wapda Boys High School Right Bank Colony Tarbella Topi (M) 2nd PS (P)*,34.074930659213074,72.66472313632053,Male,KPK,2,0,660,0
10,Govt Girls Higher Secondary School Topi (E-III)  (F) 3rd PS (P)*,34.07501,72.62417,Female,KPK,0,2,0,912
7,Govt Girls Higher Secondry School Topi (E-III)  (F) 1st PS (P)*,34.07508,72.62402,Female,KPK,0,3,0,1646
8,Govt Girls Higher Secondry School Topi (E-III)  (F) 2nd PS (P)*,34.07508,72.62405,Female,KPK,0,3,0,1473
9,Govt Primary School No.1 Topi (E-III) (M) (P)*,34.0751246835691,72.62254063996403,Male,KPK,3,0,1261,0
69,Govt:High School Kalabat (M) 1st PS (P)*,34.07623962432969,72.5557098091772,Male,KPK,3,0,1413,0
70,Govt:High School Kalabat (M) 2nd PS (P)*,34.07623962432969,72.5557398091772,Male,KPK,2,0,807,0
71,Govt:High School Kalabat (M) 3rd PS (P)*,34.07628768980967,72.55571880193432,Male,KPK,3,0,959,0
72,Govt Girls Higher Secondry School Kalabat (New building) (F) 1st PS (P)*,34.0792,72.55395,Female,KPK,0,3,0,1284
73,Govt Girls Higher Secondry School Kalabat (New building)(F) 2nd PS (P)*,34.0792,72.55398,Female,KPK,0,3,0,1047
48,Govt:High School Redawan Maini (M)  1st  PS (P)*,34.11224,72.60477,Male,KPK,3,0,1319,0
50,Govt:High School Redawan Maini (M)  3rd  PS (P)*,34.11224,72.6048,Male,KPK,2,0,841,0
49,Govt:High School Redawan Maini (M)  2nd  PS (P)*,34.11238,72.60487,Male,KPK,2,0,759,0
52,Govt Primary School Redawan Maini Ghari (F) 2nd PS (P)*,34.11288,72.60461,Female,KPK,0,3,0,1197
51,Govt Primary School Redawan Maini Ghari (F) 1st PS (P)*,34.113,72.60469,Female,KPK,0,2,0,940
38,Basic Health Unit (BHU)  Juma Khan Garhi Maini (M) 1st PS (P)*,34.11432,72.60284,Male,KPK,3,0,1388,0
39,Basic Health Unit (BHU)  Juma Khan Garhi Maini (M) 2nd PS (P)*,34.11444,72.60289,Male,KPK,2,0,648,0
40,Basic Health Unit (BHU)  Juma Khan Garhi Maini (M) 3rd PS (P)*,34.11445,72.6029,Male,KPK,3,0,1183,0
42,Govt:Girls Middle School  Juma Khan Garhi Maini (F) (P)*,34.1153,72.60258,Female,KPK,0,2,0,870
41,Govt:Girls Primary School  Juma Khan Garhi Maini (F)  (P)*,34.11531,72.60261,Female,KPK,0,3,0,1500
100,Govt:Middle/Primary School Gandaf Bala (F) (P)*,34.11871,72.69857,Female,KPK,0,3,0,1451
46,Govt Girls High School  Maini (F) 1st PS (P)*,34.11985,72.60754,Female,KPK,0,3,0,1655
47,Govt Girls High School  Maini (F) 2nd P.S (P)*,34.11985,72.60757,Female,KPK,0,2,0,936
43,Govt Primary School No. 1 Maini  Naiki khedad (M) (P)*,34.1201,72.60776,Male,KPK,2,0,678,0
97,Govt Girls Primary School No.1 Gandaf Payan (M) 2nd PS (P)*,34.12015948803714,72.68900981754358,Male,KPK,2,0,929,0
96,Govt Girls Primary School No.1 Gandaf Payan (M) 1st PS (P)*,34.12020436505097,72.68905395945536,Male,KPK,3,0,1688,0
99,Govt Girls Primary School Muhammad Khel  Gandaf (F) (P)*,34.12021761671624,72.69188670319672,Female,KPK,0,3,0,1402
95,Govt Girls High School Gandaf (F) (P)*,34.12267226956445,72.68426510068987,Female,KPK,0,3,0,1364
45,Govt Middle School Gul Bahar No.1 Maini (M) 2nd PS (P)*,34.12312,72.60369,Male,KPK,3,0,1369,0
44,Govt Middle School Gul Bahar No.1 Maini (M) 1st PS (P)*,34.12333,72.6038,Male,KPK,3,0,1351,0
98,Govt Primary School Mula khel Gandaf (M) (P)*,34.12380930569977,72.68793589487146,Male,KPK,3,0,1261,0
91,Govt: Degree College Gandaf (M) 1st PS (P)*,34.12493500086084,72.67374051859818,Male,KPK,3,0,1260,0
92,Govt: Degree College Gandaf (M) 2nd PS (P)*,34.12493500086084,72.6737705185982,Male,KPK,3,0,1328,0
93,Govt: Degree College Gandaf (M) 3rd PS (P)*,34.12497015664267,72.67377725125698,Male,KPK,3,0,1102,0
94,Govt Primary School Gandaf Center (F)  (P)*,34.12504949296832,72.67557428248546,Female,KPK,0,3,0,1133
149,Govt:High School Malik Abad (M) 1st P.S (P)*,34.149544753204545,72.65110372138122,Male,KPK,3,0,1487,0
150,Govt:High School Malik Abad(M) 2nd PS (P)*,34.14969505442901,72.65101682095421,Male,KPK,3,0,1577,0
137,Govt:High School Besak (Kabgani) (M) 1st PS (P)*,34.150127935747605,72.67273058840746,Male,KPK,2,0,1010,0
138,Govt:High School Besak (Kabgani) (M) 2nd PS (P)*,34.150127935747605,72.6727605884075,Male,KPK,2,0,922,0
139,Govt:Girls Middle School Besak (Kabgani) (F) (P)*,34.1548,72.67392,Female,KPK,0,2,0,1700
152,Govt Girls High School Malik Abad (F) (P)*,34.16137,72.64494,Female,KPK,0,3,0,1219
151,Govt Primary School No.1 Malik Abad (F) (P)*,34.1616,72.64521,Female,KPK,0,3,0,1174
101,Govt Primary School Bada Gandaf (M)  (P)*,34.163391402836204,72.69945207218309,Male,KPK,3,0,1534,0
102,Govt Girls Primary School Bada Gandaf (F) (P)*,34.16378728513668,72.69981493829789,Female,KPK,0,2,0,1162
121,Govt:Primary School Dalori  M.Chai  Gabasni  (F) (P)*,34.16872,72.73102,Female,KPK,0,2,0,901
118,Govt Girls Middle School Dalori  M.Chai  Gabasni (M)  (P)*,34.17117,72.73222,Male,KPK,3,0,1183,0
140,Govt Higher Secondry School  Kabgani (M) (P)*,34.19018474781109,72.6835627972167,Male,KPK,2,0,827,0
141,Govt  Girls High /Primary School  Kabgani (F) (P)*,34.19045,72.68513,Female,KPK,0,2,0,761
122,Govt Primary School No.1 Dewal (G.Chatra) (M) (P)*,34.194212998513,72.69041572023401,Male,KPK,3,0,1471,0
145,Govt:High School Gajai  Qadra (Kabgani) (Combined)  (P)*,34.19496869429399,72.61554714918002,Combined,KPK,2,1,748,626
124,Govt Girls Primary School No.2 Dewal (G.Chatra) (F)  (P)*,34.19865,72.69404,Female,KPK,0,3,0,1285
146,Govt High School Takail Qadra Kabgani  (M) 1st PS (P)*,34.20044,72.64752,Male,KPK,2,0,720,0
147,Govt High School Takail Qadra Kabgani  (M) 2nd PS (P)*,34.20044,72.64755,Male,KPK,2,0,1056,0
148,Govt Girls Middle School Takail Qadra Kabgani (F) (P)*,34.20320288620343,72.65659838714917,Female,KPK,0,3,0,1479
119,Govt: Middle School Kolagar Ghabasni Combined (P)*,34.21235368429288,72.72427377217193,Combined,KPK,1,1,440,374
117,Govt Girls High School Mangal Chai Gabasni (M) (P)*,34.21252,72.74198,Male,KPK,4,0,1923,0
120,Govt Primary School Mangal Chai Gabasni (F) (P)*,34.21414,72.74181,Female,KPK,0,3,0,1375
142,Govt:Primary School Qadra (Kabgani) (M)  (P)*,34.214734815906475,72.57424326217414,Male,KPK,3,0,1246,0
129,Govt Primary School No.2 Sandwa Gani Chatra (F)  (P)*,34.21611,72.67026,Female,KPK,0,2,0,1261
143,Govt:Girls Primary School No.2 Qadra (Kabgani) (F)  (P)*,34.21685,72.57434,Female,KPK,0,2,0,924
126,Govt Middle School  Sandwa Gani Chatra (M) (P)*,34.2182797709666,72.66406778014264,Male,KPK,3,0,1554,0
144,Govt:High School Qadra (Kabgani) (Comb:) (P)*,34.221272647843044,72.57953958665982,Combined,KPK,1,1,537,394
127,Govt:Higher Secondary School Naro Banda G.Chatra (Comb:)  (P)*,34.22652,72.66531,Combined,KPK,2,1,538,415
123,Govt Girls High School Dagai Dewal (G.Chatra) (Comb:) (P)*,34.22738,72.66492,Combined,KPK,1,1,431,356
105,Govt Primary School No.1 Chanai Gabasni (M) (P)*,34.23227,72.75623,Male,KPK,3,0,1487,0
112,Govt:Middle School Serai Utmanzai Gabasni (Comb:)  (P)*,34.234869205831586,72.7023804083384,Combined,KPK,1,1,425,298
107,Govt Girls Middle School  Chanai Gabasni (F) (P)*,34.2375,72.7518,Female,KPK,0,3,0,1214
103,Govt Primary School Achelai Gabasni (Combined) (P)*,34.2417347908424,72.71453075991583,Combined,KPK,2,1,934,427
106,Govt Primary School Dewal Garhi Payan Gabasni (F)  (P)*,34.24184,72.73538,Female,KPK,0,2,0,1048
104,Govt Middle School Dewal Garhi Payan Gabasni (M)  (P)*,34.242431033075015,72.73573798322585,Male,KPK,2,0,948,0
128,Govt Girls Middle School Gani Chatra (F)  (P)*,34.24883,72.65607,Female,KPK,0,3,0,1219
125,Govt:High School Gani Chatra (M) (P)*,34.2519013433887,72.65721928918538,Male,KPK,3,0,1476,0
134,Govt Primary School Amrai Bala Utla Gani Chatra (Comb) (P)*,34.25501319804604,72.68732495289399,Combined,KPK,2,1,708,529
113,Govt:High School Gabasni (M) (P)*,34.26038322503681,72.71689701760118,Male,KPK,3,0,1262,0
114,Govt:Girls Middle School Gabasni (F) (P)*,34.26267205756247,72.71241712397496,Female,KPK,0,2,0,1025
108,Govt Primary School Gabai Gabasni (M) (P)*,34.26385443830413,72.75550841225677,Male,KPK,2,0,1002,0
109,Govt Girls Primary School Gabai Gabasni (F) (P)*,34.266274801162986,72.75671399961945,Female,KPK,0,2,0,844
130,Govt:Higher Secondary School Utla G.Chatra (M) 1st PS (P)*,34.26639,72.69738,Male,KPK,3,0,1115,0
131,Govt:Higher Secondary School Utla G.Chatra (M) 2nd PS (P)*,34.26639,72.69741,Male,KPK,3,0,1244,0
132,Govt Girls High School Utla Gani Chatra (F) 1st PS (P)*,34.26868752064178,72.68820620070773,Female,KPK,0,2,0,942
133,Govt Girls High School Utla Gani Chatra (F) 2nd PS (P)*,34.268695849905306,72.68818903506347,Female,KPK,0,3,0,1076
115,Govt: Girls Primary School Gani Kot Gabasni (M) P*,34.26916,72.74126,Male,KPK,1,0,357,0
135,Govt High School Mazghund Utla G.Chatra (M) (P)*,34.27162,72.66334,Male,KPK,3,0,1129,0
136,Govt Girls Primary School Mazghund Utla G.Chatra (F) (P)*,34.27242,72.66379,Female,KPK,0,2,0,824
110,Govt Primary School Beergalii Gabasni (M) (P)*,34.28937,72.73023,Male,KPK,2,0,745,0
111,Govt Primary School Bori Gabasni (F)  (P)*,34.290943904631796,72.73107148109173,Female,KPK,0,2,0,608
