StationId,PollingStation,Lat,Lng,BoothType,Province,MaleBooths,FemaleBooths,MaleVoters,FemaleVoters
69,govt ; primary school no2 kanderoo (P) male ps no1,34.10262605327085,72.16842702109098,Male,KPK,4,0,1480,0
70,govt; primary school no 2 kandar p male ps no 2,34.10262605327085,72.168457021091,Male,KPK,3,0,1118,0
74,GOVT ; GIRLS HIGH SCHOOL MUHAMMAD WALI KILLI  (p)  MALE PS  NO1,34.103451480044896,72.14109056671812,Male,KPK,4,0,1763,0
75,govt girls high school muhammad wali killi ps no2 (P) female,34.103451480044896,72.1411205667181,Female,KPK,0,3,0,1297
77,govt primary school akhonzadgan killi (T) male,34.104015698652496,72.17497744769518,Male,KPK,3,0,1324,0
78,govt; girls primary school gad bano  killi toru (T) female,34.10405633574668,72.17499867557642,Female,KPK,0,3,0,1021
55,GOVT  HIGH  SCHOOL  SHAMSHAD ABAD PS NO 1 COMBINED,34.1063977662984,72.1042847152236,Combined,KPK,2,1,507,416
58,GOVT HIGH SCHOOL SHAMSHAD ABAD MALE  PS NO 2,34.1063977662984,72.1043147152236,Male,KPK,3,0,1450,0
59,GOVT HIGH SCHOOL SHAMSHAD ABAD PS NO 3 FEMALE,34.1063977662984,72.1043447152236,Female,KPK,0,3,0,1050
88,Govt: high School Anar Baig (P) Combind,34.106667815491264,72.20055528714852,Combined,KPK,1,1,380,293
65,govt high school toru mera muhammad wali killi ps no 1 (P)  male,34.10888336351032,72.13610938127131,Male,KPK,4,0,2120,0
66,govt high school muhammad wali killi ps no 2 (P) female,34.10888336351032,72.1361393812713,Female,KPK,0,4,0,1577
50,Govt: Girls Primary School No.3 Zaid Khel Toru (P) Combined.,34.12046741195873,72.09993516581402,Combined,KPK,2,1,563,425
53,govt degree college toru male ps no 1,34.12046741195873,72.099965165814,Male,KPK,4,0,1566,0
56,govt degree college toru  male  p s no 3,34.12046741195873,72.099995165814,Male,KPK,3,0,1220,0
57,GOVT DEGREE COLLEGE TORU FEMALE P S NO 4,34.12046741195873,72.100025165814,Female,KPK,0,2,0,886
54,govt degree college  toru female ps no 2,34.12049962269598,72.09998891305602,Female,KPK,0,3,0,1114
72,GOVT; PRIMARY SCHOOL QASIM MALE,34.12448014603942,72.13765563209783,Male,KPK,4,0,1851,0
73,GOVT; GIRLS PRIMARY SCHOOL NO 1 QASIM (p) FEMALE,34.13072147513717,72.1376220503983,Female,KPK,0,3,0,1406
51,govt girls higher secondary school toru (p) combined ps s no 1,34.14219500961986,72.09815870636443,Combined,KPK,2,2,946,546
52,govt  girls higher secondary school toru (P) combined P S no 2,34.14219500961986,72.0981887063644,Combined,KPK,2,2,1115,1028
60,GOVT HIGHER SECONDARY SCHOOL SOWARRYAN  M PS NO1,34.14519457379635,72.10484874379362,Male,KPK,4,0,1492,0
61,govt; higher secondary school sowarryan(P) male ps no. 2,34.14519457379635,72.1048787437936,Male,KPK,4,0,1482,0
63,govt- higher secondary school  sowarryan (P) male ps no. 3,34.14519457379635,72.1049087437936,Male,KPK,3,0,1177,0
43,Govt: Girls Primary School Nawan Killi ( female),34.14602723500133,72.09450000291156,Female,KPK,0,3,0,1022
42,govt high school nawi killi male ps  no 2,34.146350480245786,72.09006636484487,Male,KPK,3,0,1395,0
45,GOVENMENT HIGH SCHOOL TORU P S 1 (P) COMBINED,34.146350480245786,72.0900963648449,Combined,KPK,2,1,560,491
46,Govt: High School Toru PS No.2 (P) (Male),34.146350480245786,72.0901263648449,Male,KPK,3,0,1424,0
41,govt primary school  nawi killi (female),34.146354819986655,72.09061078099623,Female,KPK,0,4,0,1875
40,govt  high school nawa  killi ps no 1 (p) male,34.14636126327608,72.09007524498556,Male,KPK,3,0,1327,0
44,govt high school nawi killi male ps no 3,34.14636126327608,72.0901052449856,Male,KPK,3,0,1357,0
45,GOVENMENT HIGH SCHOOL TORU P S 1 (P) COMBINED,34.14636126327608,72.0901352449856,Combined,KPK,2,1,560,491
47,Govt: High School Toru PS No.3 (P) Male,34.14636126327608,72.0901652449856,Male,KPK,2,0,854,0
48,Govt: Primry School Toru PS No.1 (P) female,34.14638208581861,72.09064488798757,Female,KPK,0,2,0,809
49,Govt: primary School Toru (P) Female PS No.2,34.14638208581861,72.0906748879876,Female,KPK,0,3,0,1166
84,GOVT JIKA MODEL SCHOOL GUMBAT COMBINED,34.14689364086813,72.1986258089945,Combined,KPK,2,2,1035,851
82,GOVT ; GIRLS  HIGH SCHOOL GUMBAT (p) MALE PS NO1,34.14806715644561,72.1957432494236,Male,KPK,3,0,1150,0
83,GOVT ; GIRLS HIGH SCHOOL GUMBAT   (p) FEMALE PS NO 2,34.14806715644561,72.1957732494236,Female,KPK,0,2,0,918
86,Govt: High School Dakki Gumbat (P) Male,34.14806715644561,72.1958032494236,Male,KPK,3,0,1204,0
85,GOVT PRIMARY SCHOOL NO 1 GUMBAT COMBINED,34.149835183880704,72.19377832358423,Combined,KPK,2,2,1143,854
79,govt high school gumbat ps no 1 (P) combined,34.149835183880704,72.1938083235842,Combined,KPK,2,2,947,813
80,GOVT; HIGH SCHOOL GUMBAT PS NO 2 (p) COMBINED,34.149835183880704,72.1938383235842,Combined,KPK,1,1,381,312
81,GOVT;  HIGH SCHOOL GUMBAT  PS NO 3 (p)  COMBINED,34.149835183880704,72.1938683235842,Combined,KPK,2,2,704,549
76,govt; girls middle school gad bano killi (T) combined,34.1559574215325,72.18305189285654,Combined,KPK,2,1,674,461
39,govt  primary school zor mandi mayar combined,34.159405441436675,72.09648289073239,Combined,KPK,2,2,827,579
32,govt primary schoool bhati korona (female),34.15961622460328,72.07689894208028,Female,KPK,0,3,0,1161
89,Govt: High School Geedar (P) Male,34.161890807735396,72.17625620781612,Male,KPK,3,0,1188,0
90,Govt: primary school geedar (P) Female,34.16229690669377,72.1783356087895,Female,KPK,0,2,0,907
71,GOVT ; HUGH SCHOOL KANDAR P FEMALE,34.162391955064635,72.16175461729738,Female,KPK,0,4,0,1850
37,govt girls high school mayar male ps no 1,34.16363231897505,72.08458804148361,Male,KPK,3,0,1288,0
38,govt girls high school  mayar female p.s no 2,34.16363231897505,72.0846180414836,Female,KPK,0,2,0,984
36,govt primary school mayar no 1 (p) female,34.163853971348736,72.08547010098964,Female,KPK,0,3,0,1230
29,GOVT HIGHER SECONDARY SCHOOL MAYAR PS NO 1 (P) COMBINED,34.16434422121169,72.07692890132296,Combined,KPK,2,1,804,575
30,govt higher secondary school mayar ps no 2 (p)  combined,34.16434422121169,72.076958901323,Combined,KPK,2,2,927,637
31,govt higher secondary school mayar p. s no 3 (p)  male,34.16434422121169,72.076988901323,Male,KPK,4,0,1475,0
35,govt  primary school mayar no 2 (rented building ) male,34.16458706912678,72.08203618708063,Male,KPK,4,0,1643,0
34,govt girls primary school kumbar mayar (female),34.166389871533,72.08399761744249,Female,KPK,0,3,0,1170
27,BASIC HEALTH UNIT MAYAR COMBINED PS NO 1,34.167596667842986,72.08080466113718,Combined,KPK,2,1,823,578
28,BASIC HEALTH UNIT MAYAR PS NO 2 COMBINED,34.167596667842986,72.0808346611372,Combined,KPK,2,2,985,676
25,GOVT PRIMARY SCHOOL GADO MAYAR (P) MALE PS NO 1,34.17021231000642,72.07327108837178,Male,KPK,3,0,1391,0
26,GOVT PRIMARY SCHOOL  GADO MAYAR (P) FEMALE PS NO2,34.17021231000642,72.0733010883718,Female,KPK,0,2,0,924
67,govt; praimary school jabba  ps no 1 (P)  male,34.17569066424772,72.12357010030516,Male,KPK,2,0,858,0
68,govt primary school jabba ps no 2 (P) female,34.17569066424772,72.1236001003052,Female,KPK,0,2,0,548
109,GOVT; GIRLS HIGH SCHOOL CHAMRANG FEMALE,34.17789426455321,72.15473868442044,Female,KPK,0,4,0,1771
107,govt; middle school cham rang (P) male,34.179232262960205,72.15461381261073,Male,KPK,3,0,1261,0
108,GOVT; PRIMARY SCHOOL NO 1 CHAMRANG MALE,34.179684438416444,72.15854452896586,Male,KPK,3,0,1056,0
7,government primary school ijara killi combined,34.1863842,72.0301194,Combined,KPK,2,1,601,416
4,government primary school bandi (p) male  ps no2,34.18727952802392,72.07976671344433,Male,KPK,3,0,1431,0
5,governmnt primary school mehmood abad chak hoti (p) female,34.18727952802392,72.0797967134443,Female,KPK,0,3,0,1461
6,government girls primary  school bara ( combined),34.18727952802392,72.0798267134443,Combined,KPK,1,1,506,338
3,government primary school bandi (p) male ps no 1,34.18951923041681,72.09438126383232,Male,KPK,2,0,1019,0
24,GOVT PRIMARY SCHOOL NO 2 MUHIB BANDA (P) COMBINED,34.1946149558405,72.11425467093305,Combined,KPK,2,2,945,587
115,govt; primary school kot ismail zai male,34.19557616157421,72.15288828006668,Male,KPK,3,0,1417,0
116,govt; girls middle school kot ismail zai ps no1 female,34.19609646266563,72.15304807870696,Female,KPK,0,3,0,1091
118,GOVT; GIRLS MIDDLE SCHOOL KOT ISMAIL ZAI PS NO. 2 FEMALE,34.19609646266563,72.153078078707,Female,KPK,0,3,0,1232
110,GOVT; PRIMARY SCHOOL NO 1 GHARI ISMAIL ZAI  COMBINED,34.19627096918421,72.16416385351968,Combined,KPK,2,1,627,386
19,GOVT HIGH SCHOOL MUHIB BANDA (P) FEMALE PS NO 1,34.196676827377615,72.11059942620562,Female,KPK,0,4,0,1578
20,GOVT HIGH SCHOOL MUHIB BANDA (P) COMBINED PS NO2,34.1966884035499,72.1105902895932,Combined,KPK,3,1,1203,528
117,govt; primary school no 1 kot ismail zai  male,34.1971996485282,72.1566539384819,Male,KPK,4,0,1752,0
105,govt; primary school no 2  ghari ismail zai ps no 1 combined,34.19722065605748,72.17013920164743,Combined,KPK,2,2,796,670
106,GOVT; PRIMARY SCHOOL NO 2 GHARI ISMAIL ZAI PS NO 2 COMBINED,34.19722065605748,72.1701692016474,Combined,KPK,2,1,546,414
22,GOVT PRIMARY SCHOOL MUHIB BANDA (P )  COMBINED PS NO 1,34.19782486315168,72.1152216221657,Combined,KPK,2,2,1074,700
23,Govt Primary School no 1 Mohib Banda (P)  combined ps no 2,34.19782486315168,72.1152516221657,Combined,KPK,2,2,1025,726
111,GOVT; PRIMARY SCHOOL NO 1 KOT DAULAT ZAI COMBINED,34.20219882956663,72.15416042167963,Combined,KPK,2,2,1094,783
112,basic health unit kot daulat zai  ps no 1 combined,34.203005656379986,72.1504633237582,Combined,KPK,2,2,980,708
114,BASIC HEALTH UNIT KOT DAULAT ZAI PS NO 2 FEMALE,34.203005656379986,72.1504933237582,Female,KPK,0,3,0,1294
113,GOVERNMENT  GIRLS PRIMARY SCHOOL BATAGRAM KOT DAULAT ZAI MALE,34.20469306609964,72.15098118914942,Male,KPK,4,0,1724,0
1,government primary school shah dand (p) combined ps no. 1,34.20563454879366,72.07798832898459,Combined,KPK,2,2,855,564
2,government primary school shah dand (p) combined ps 2,34.20563454879366,72.0780183289846,Combined,KPK,2,1,649,448
17,govt primary school kagan (p) combined,34.217390508272665,72.1246198682505,Combined,KPK,2,2,818,569
15,govt primary school no 1 zando dheri (p) combined,34.221336310213324,72.11809861746754,Combined,KPK,2,2,905,626
11,GOVT PRIMARY SCHOOL BAKO DEHRI SANG I MAR MAR COMBINED,34.222452958589194,72.09826453953536,Combined,KPK,2,1,559,314
94,Govt: Girls Primary School No.1 Bala Garhi (P) Combined,34.226115851608974,72.15241861332494,Combined,KPK,2,2,972,734
92,Categary "D" Hospital Bala Garhi Female,34.22741496830641,72.14424764148075,Female,KPK,0,3,0,1009
95,Govt: Primary School No.1 Bala Garhi (P) Combined,34.227711122304974,72.15254740540281,Combined,KPK,2,2,712,513
16,government girls high school zando dheri (p) combined,34.23026344542241,72.12656097543781,Combined,KPK,2,2,925,605
10,GOVT GIRLS PRIMARY SCHOOL TAWAS BANDA PANAI ALA DAD KHEL  FEMALE RENTED BUILDING JAZONO GROUND,34.23106854500898,72.10037538020782,Female,KPK,0,2,0,861
8,Govt; Primary School Panai Alla Dad Khel ps no 1,34.23125454682979,72.10111884054626,Combined,KPK,2,2,914,560
9,GOVT- PRIMARY SCHOOL PANIA ALA DAD KHEL PS NO 2 (JANAZO GROUND) MALE,34.23125792313296,72.10118210598262,Male,KPK,3,0,1401,0
97,Govt: High School Bala Garhi Combined,34.23206008733495,72.14949475526946,Combined,KPK,2,2,763,557
101,BASIC  Health Unit Ghari Ismail Zai PS No.1 Male,34.233287303324865,72.14665767703578,Male,KPK,3,0,1305,0
102,Basic Health Unit Ghari Ismail Zai PS No.2 Female,34.233287303324865,72.1466876770358,Female,KPK,0,2,0,934
103,Basic Health Unit Ghari Ismail Za iPS No.3 Combined,34.233287303324865,72.1467176770358,Combined,KPK,1,1,472,347
93,Govt: Primary School Ata Muhammad  Banda Combined,34.23412010573836,72.13751622594089,Combined,KPK,2,2,677,528
91,Govt: Girls Middle School Ata Muhammad Banda Male,34.2343180311269,72.1372184179931,Male,KPK,4,0,1486,0
12,agricultural university tawas babeni road mardan (p)  male ps no 1,34.235211328766184,72.08848932719044,Male,KPK,3,0,1282,0
13,agricultural university tawas babeni road mardan (p)  combined ps no. 2,34.235211328766184,72.0885193271904,Combined,KPK,1,3,477,1037
18,GOVT PRIMARY SCHOOL TOOT KILLI (P)  COMBINED,34.23994611139423,72.1191542173394,Combined,KPK,2,2,716,500
14,govt primary school chora (p) combined,34.2533572109513,72.1206034801815,Combined,KPK,2,2,881,605
100,govt primary school  gulshan abad  combined,34.263557613003314,72.1281767110575,Combined,KPK,1,1,423,311
99,govt; girls primary school cham dheri (female),34.272446964152735,72.1251019351806,Female,KPK,0,2,0,769
98,govt girls high school cham dheri male,34.275010585616805,72.1276406533576,Male,KPK,3,0,984,0
104,Govt: Girls Primary  School Ghari Ismail Zai (P) Combined,34.28791338740197,72.16624979643525,Combined,KPK,2,1,573,454
