StationId,PollingStation,Lat,Lng,BoothType,Province,MaleBooths,FemaleBooths,MaleVoters,FemaleVoters
100,Govt: Hayat Ullah Shaheed Middle School- Ijara Aman ullah Khan- (Male),34.1527265,71.7473734,Male,KPK,4,0,1367,0
91,Govt: Primary School Mulyano Killy (Male),34.1539562,71.7502508,Male,KPK,2,0,836,0
119,Govt: Shaheed Rizwan Sareer Higher Secondary School No.1- Utmanzai- Polling Station No.I- (Male),34.1539562,71.7502808,Male,KPK,3,0,1050,0
123,Govt: Shaheed Rizwan Sarir Higher Secondary School Utmanzai- Polling Station No.II- (Male),34.1539562,71.7503108,Male,KPK,4,0,1671,0
129,Govt: Shaheed Rizwan Sarir Higher Secondary School Utmanzai- Polling Station No.III- (Female),34.1539562,71.7503408,Female,KPK,0,3,0,1384
130,Govt: Shaheed Hamza Ali Kakar High School Utmanzai  Polling Station No.I- (Male),34.155184,71.7609507,Male,KPK,3,0,954,0
131,Govt: Girls Higher Secondary School- Utmanzai- Polling Station No.I (Female),34.155184,71.7609807,Female,KPK,0,2,0,797
132,Govt: Shaheed Hamza Ali Kakar High School Utmanzai  Polling Station No.II- (Male),34.155184,71.7610107,Male,KPK,3,0,1336,0
133,Govt: Girls Higher Secondary School- Utmanzai- Polling Station No.II (Female),34.155184,71.7610407,Female,KPK,0,3,0,1123
134,Govt: Girls Higher Secondary School- Utmanzai- Polling Station No.III (Female),34.155184,71.7610707,Female,KPK,0,4,0,1892
135,Govt Girls Primary School Utmanzai (Male),34.155184,71.7611007,Male,KPK,3,0,1153,0
107,Govt: Shaheed Shamwail Tariq High School- Turangzai (Male),34.155184,71.7611307,Male,KPK,4,0,1604,0
109,Govt: Girls High School- Turangzai (Female),34.155184,71.7611607,Female,KPK,0,2,0,1052
125,Govt: Girls Middle School Tariq Abad- Utmanzai- P Station No.I (Female),34.155184,71.7611907,Female,KPK,0,2,0,982
126,Govt: Girls Middle School Tariq Abad- Utmanzai- P Station No.II (Female),34.155184,71.7612207,Female,KPK,0,4,0,2185
127,Govt: Girls Primary School- Parich Khel-Polling Station No. I- (Male),34.155184,71.7612507,Male,KPK,4,0,1571,0
74,Govt: Girls High School Behlola- Polling Station No.I- (Male),34.1573941,71.7727492,Male,KPK,3,0,948,0
75,Govt: Girls High School Behlola- Polling Station No.II- (Female),34.1573941,71.7727792,Female,KPK,0,3,0,1302
82,Govt: Primary School- Behlola (Combined),34.1573941,71.7728092,Combined,KPK,2,2,780,535
73,Govt: Girls Middle School Khair Muhammad Koroona Kuladhand Payan (Female),34.1573941,71.7728392,Female,KPK,0,3,0,1686
94,Govt: High School Ghazgi-Polling Station No.I- (Male),34.1573941,71.7728692,Male,KPK,4,0,1284,0
95,Govt: High School- Ghazgai-Polling Station No.II- (Male),34.1573941,71.7728992,Male,KPK,3,0,1137,0
124,Govt: Primary School Tariq Abad (Male),34.1819,71.7691,Male,KPK,4,0,2179,0
117,Govt: Girls Primary School Mera Utmanzai (Female),34.188,71.786,Female,KPK,0,2,0,1212
120,Govt: Primary School No.3 Utmanzai (Male),34.19146,71.76315,Male,KPK,4,0,1531,0
111,Govt: Middle School Kot- (Combined),34.1916,71.70879,Combined,KPK,2,1,924,697
128,Municipal Committee Office- Utmanzai(Male),34.1925,71.7614,Male,KPK,3,0,1042,0
121,Govt: Girls Primary School Sultan Abad Utmanzai (Female),34.1931,71.7652,Female,KPK,0,2,0,864
122,Govt: Shaheed Sami Ullah Middle School Utmanzai  (Female),34.19312,71.76482,Female,KPK,0,2,0,1194
116,Govt: Primary School Mera Utmanzai (Male),34.197262649936576,71.79350735308402,Male,KPK,4,0,1575,0
110,Govt: Primary School- Nimorai Baba- (Combined),34.20635,71.71624,Combined,KPK,2,1,575,417
79,Govt: High School- Behlola- Polling Station No.II- (Male),34.20640824931052,71.71626368383016,Male,KPK,3,0,952,0
113,Govt: Primary School- Marwandi Akbar Abad (Anwar Mahall) (Male),34.2075723273767,71.79835034859921,Male,KPK,3,0,1130,0
115,Govt: Girls Primary School- Shaheen Killi (Anwar Mahall) (Female),34.209233148711675,71.79773304192364,Female,KPK,0,3,0,1626
118,Govt: Middle School Sadat Abad (Combined),34.2098,71.7884,Combined,KPK,2,2,1222,855
32,Govt: Primary School Hisara Nehri- (Male),34.2104,71.7062,Male,KPK,3,0,1203,0
108,Govt: Girls Primary School- Turangzai (Female),34.211,71.7573,Female,KPK,0,4,0,2290
89,Govt: Girls Primary School Khat Koroona- Turangzai- (Male),34.21117632684729,71.7574037934042,Male,KPK,3,0,1034,0
88,Govt: Primary School- Khat Killi (Gardeen)( Male),34.212329864749144,71.76049327944303,Male,KPK,3,0,1283,0
93,Govt: Girls Community Model School Khat Qilla (Female),34.21464,71.76727,Female,KPK,0,2,0,744
104,Govt: Middle School Dheri Hamid Mian- (Male),34.2162,71.7173,Male,KPK,4,0,1420,0
105,Govt: Middle School Dheri Hamid Mian-  (Female),34.2162,71.71733,Female,KPK,0,3,0,1196
114,Govt: Primary School Nai Abadi Anwar Mahal (Male),34.21783,71.80197,Male,KPK,3,0,1062,0
106,Govt: Primary School- Wadigram Turangzai- (Male),34.2191,71.7466,Male,KPK,4,0,2240,0
112,Govt: Primary School Gango (Combined),34.2202,71.6888,Combined,KPK,2,1,858,703
86,Govt: Girls Primary School- Didar Abad (Male),34.2205,71.74969,Male,KPK,3,0,1163,0
101,Govt: Girls Middle School-Maqbool Abad Tebana- (Male),34.22137697584322,71.79081121892588,Male,KPK,4,0,1552,0
46,Govt: Shaheed Nangyal Tariq Sintinintal  Model School- TurangzaiP Station No.I (Male),34.22345407328696,71.74219871631793,Male,KPK,4,0,1297,0
47,Govt: Shaheed Nangyal Tariq Sintinintal  Model School- TurangzaiP Station No.II (Male),34.22345407328696,71.7422287163179,Male,KPK,2,0,776,0
52,Govt: Girls Primary School- Aman Abad-(Female),34.226451396685434,71.74026054675743,Female,KPK,0,3,0,1582
77,Basic Health Unit Behlola (Combined),34.22673,71.8767,Combined,KPK,2,2,854,582
92,Govt: Girls Primary School Momin Abad( Female),34.226830552046565,71.76565178948218,Female,KPK,0,2,0,1145
55,Govt: Primary School- Ayaz Killi- (Female),34.228163769683704,71.70205646983445,Female,KPK,0,2,0,987
90,Govt: Girls Primary School-Sheikhano Killi- Didar Abad (Female),34.2312,71.74319,Female,KPK,0,3,0,1629
54,Govt: Primary School- Chitla Dheri-(Male),34.2315775782667,71.71842592742695,Male,KPK,3,0,1245,0
44,Govt: High School Gul Khitab Koroona Umarzai (Male),34.23381,71.72749,Male,KPK,3,0,973,0
48,Govt: Primary School Gul Khitab Koroona Umarzai(Female),34.23382,71.72762,Female,KPK,0,2,0,674
68,Govt: Primary School- Haji Abad (Female),34.2351,71.7391,Female,KPK,0,3,0,1441
96,Govt: Girls Primary School Momando Killy (Male),34.2361,71.7856,Male,KPK,2,0,664,0
102,Govt: Primary School Qalarai (Female),34.23708672764722,71.81305157283623,Female,KPK,0,3,0,1189
41,Govt: Girls Primary School No.1- Umarzai- (Male),34.2373,71.7254,Male,KPK,4,0,1892,0
42,Govt: Girls Higher Secondary School- Umarzai- Polling Station No.I- (Female),34.23815966890521,71.72774855723866,Female,KPK,0,4,0,2207
43,Govt: Girls Higher Secondary School- Umarzai- Polling Station No.II- (Female),34.23815966890521,71.7277785572387,Female,KPK,0,3,0,1597
50,Govt: Girls Higher Secondary School- Umarzai- Polling Station No.III-  (Female),34.23815966890521,71.7278085572387,Female,KPK,0,2,0,1081
103,Govt: Girls primary school Qalari (Female),34.23937,71.8157,Female,KPK,0,2,0,1057
99,Govt: High School- Munshiano Killi (Combined),34.242623707817955,71.79956520498122,Combined,KPK,2,2,1118,826
49,Govt: Primary School No.1- Umarzai -(Male),34.24279392670685,71.7249733634941,Male,KPK,4,0,1846,0
45,Govt: Higher Secondary School- Umarzai- Polling Station No.II- (Male),34.24337348941713,71.72556078570727,Male,KPK,4,0,1207,0
40,Govt: Higher Secondary School- Umarzai- Polling Station No.I- (Male),34.2436,71.7249,Male,KPK,4,0,2797,0
67,Govt: High School- Kuladand-Poling Station No. I- (Male),34.24450201924779,71.7557089965975,Male,KPK,4,0,1645,0
69,Govt: High School- Kuladand-Poling Station No. II- (Female),34.24450201924779,71.7557389965975,Female,KPK,0,2,0,1218
51,Govt: Girls Primary School Sarwar Abad Umarzai (Female),34.24456,71.72649,Female,KPK,0,3,0,1477
81,Govt: Girls Primary School Haji Yar Gul Kily (Female),34.24531,71.85503,Female,KPK,0,3,0,1721
65,Govt: Primary School- Shalmano Killi- (Male),34.245647443998045,71.74185477927861,Male,KPK,4,0,1335,0
72,Govt: Primary School- Kuladhand Payan(Male),34.246063720557316,71.76487382539982,Male,KPK,2,0,756,0
66,Govt: Primary School Kuladhand Payan PS No.II (Male),34.246063720557316,71.7649038253998,Male,KPK,2,0,643,0
53,Govt: Primary School- Nishan Abad-(Combined),34.24748069798504,71.71265677348312,Combined,KPK,2,2,871,639
97,Basic Health Unit- Ghazgi (Female),34.24886,71.79927,Female,KPK,0,3,0,1515
76,Govt: Primary School Behlola Bala (Male),34.25025,71.84418,Male,KPK,3,0,980,0
80,Govt: Girls Primary School Tambolak Behlola Payan (Combined),34.25062,71.86808,Combined,KPK,1,1,488,370
61,Govt: Middle School Mehmood Abad- Polling Station No.II- (Female),34.250626773301896,71.72656930646967,Female,KPK,0,3,0,1355
59,Govt: Middle School Mehmood Abad- Polling Station No.I- (Combined),34.25066604885671,71.72662086860583,Combined,KPK,1,1,439,323
60,Govt: Primary School Mehmood Abad- (Male),34.25076451999753,71.72693833993812,Male,KPK,4,0,1835,0
78,Govt: High School- Behlola- Polling Station No.I- (Male),34.2508,71.8534,Male,KPK,3,0,1442,0
98,Govt: Primary School-Mukkarm Shah Koroona (Female),34.2541,71.7998,Female,KPK,0,2,0,938
62,Govt: Primary School- Chindro Dag (Ghani Korona Umarzai)-  (Male),34.26390388125086,71.7425838029675,Male,KPK,2,0,776,0
64,Govt: Girls Primary School- Qadeem Abad No. II- (Female),34.2659453559238,71.73561211327544,Female,KPK,0,2,0,1407
56,Govt: Girls Degree College Akhundheri Umarzai- Polling Station No.I (Male),34.26899,71.75618,Male,KPK,3,0,1015,0
57,Govt: Girls Degree College Akhundheri Umarzai- Polling Station No.II (Male),34.26899,71.75621,Male,KPK,4,0,1519,0
58,Basic Health Unit- Akhon Dheri-(Female),34.26908263083682,71.76015509030971,Female,KPK,0,3,0,1784
71,Govt: High School- Zarbab Gharhi- Polling Station No.II- (Female),34.27126180795989,71.79428384029848,Female,KPK,0,2,0,873
70,Govt: High School- Zarbab Gharhi- Polling Station No.I- (Male),34.27130117877449,71.79426332077541,Male,KPK,3,0,1253,0
87,JICA Model School Zarbab Ghari (Male),34.2718,71.7908,Male,KPK,4,0,1503,0
83,Govt: Primary School-Sarki Mashran- Ijara Killi- Shakh No.6- (Male),34.272,71.8091,Male,KPK,3,0,1018,0
84,Govt: Girls High  School Shakh No.6 (Male),34.2753,71.8186,Male,KPK,2,0,836,0
85,Govt: Girls High School- Shakh No.6 (Female),34.2753,71.81863,Female,KPK,0,3,0,1391
31,Govt: Primary School no.2 pasand killy (Male),34.28208,71.80113,Male,KPK,3,0,1196,0
30,Govt: Middle School- Charchano Khat-(Female),34.28366,71.78278,Female,KPK,0,3,0,1321
29,Govt: Primary School- Charchano Khat- (Male),34.28372,71.78272,Male,KPK,2,0,883,0
63,Govt: Primary School-  Nan Killi (Male),34.28699,71.76258,Male,KPK,3,0,1196,0
23,Govt: Primary School Amir Abad- Polling Station No.I (Male),34.29195,71.78452,Male,KPK,3,0,1099,0
27,Govt: Girls Primary School- Amir Abad- Polling Station No.I(Female),34.29195,71.78455,Female,KPK,0,3,0,1374
24,Govt: Primary School Amir Abad- Polling Station No.II (Male),34.29195,71.78458,Male,KPK,3,0,1568,0
28,Govt: Girls Primary School- Amir Abad- Polling Station No.II(Female),34.29195,71.78461,Female,KPK,0,4,0,1944
25,Govt: Primary School No.2 Shaukat abad (Male),34.3017,71.80551,Male,KPK,2,0,817,0
18,Govt: Girls Primary School- Zaim Karghan (Male),34.30219,71.72115,Male,KPK,2,0,748,0
19,Govt: Girls Higher Secondary School Ziam (Male),34.3023,71.721,Male,KPK,3,0,1198,0
20,Govt: Girls High School- Zaim-(Female),34.3023,71.72103,Female,KPK,0,3,0,1371
15,Govt: Girls High School- Dhakki-(Female),34.30271,71.7727,Female,KPK,0,3,0,1482
16,Govt: Girls High School dhakki (Female),34.30271,71.77273,Female,KPK,0,3,0,1259
14,Govt: Primary School Dhakki (Male),34.30459,71.77034,Male,KPK,3,0,1169,0
17,Govt: Middle School- Dhakki- (Male),34.30692,71.77916,Male,KPK,3,0,1626,0
13,Govt: Higher Secondary School- Dhakki- (Male),34.30782,71.7678,Male,KPK,3,0,924,0
22,Govt: Girls Primary School- Ajab Gul Kilay- (Combined),34.31062,71.78906,Combined,KPK,2,2,1151,824
21,Govt: Primary School- Ajab Gul Kilay- (Combined),34.31217,71.78798,Combined,KPK,2,2,886,610
35,Govt: Girls Primary School Qadim Killy(Female),34.3174,71.73579,Female,KPK,0,2,0,714
34,Basic Health Unit-  Hisara Nehri (Female),34.31944,71.6992,Female,KPK,0,3,0,1111
6,Govt: Girls Primary School- Sheikhano(Female),34.33059,71.80525,Female,KPK,0,3,0,883
8,Govt: High School- Bariband- Polling Station No.II (Male),34.33334,71.80682,Male,KPK,2,0,895,0
5,Govt: High School- Bariband- Polling Station No.I (Male),34.33334,71.80685,Male,KPK,3,0,1163,0
38,Govt: Middle School- Dado Killi- (Male),34.3336,71.7372,Male,KPK,3,0,1226,0
9,Govt: Primary School- Bariband- Polling Station No.I(Female),34.33387,71.80339,Female,KPK,0,3,0,1758
12,Govt: Primary School- Bariband- Polling Station No.II(Female),34.33387,71.80342,Female,KPK,0,3,0,1366
10,Govt: Girls Middle School- Bariband- (Male),34.3344,71.79573,Male,KPK,3,0,1030,0
11,Govt: Primary School- sheikhan Bari Band (Male),34.33465,71.80495,Male,KPK,2,0,888,0
39,Govt: Girls Primary School Haji Tajuddin Mashin(Female),34.33549,71.73103,Female,KPK,0,2,0,812
37,Govt: Girls Middle School- Dado Killi-(Female),34.338,71.744,Female,KPK,0,3,0,1116
33,Govt: Primary School Wazir Killi Kochaki (Male),34.33958,71.69975,Male,KPK,3,0,1573,0
36,Basic Health Unit- Dado Killi (Male),34.34396,71.74479,Male,KPK,3,0,1570,0
3,Govt: Girls Higher Secondary School Mandani Polling Station-I(Female),34.346,71.791,Female,KPK,0,3,0,1327
4,Govt: Girls Higher Secondary School Mandani- Polling Station-II(Female),34.346,71.79103,Female,KPK,0,3,0,1432
7,Govt: Primary School Mandani Colony (Male),34.35151,71.79202,Male,KPK,3,0,1307,0
1,Govt: Higher Secondary School- Mandani-  Polling Station No.I- (Male),34.35186,71.79118,Male,KPK,4,0,1654,0
2,Govt: Higher Secondary School- Mandani-  Polling Station No.II- (Male),34.35186,71.79121,Male,KPK,4,0,1865,0
