StationId,PollingStation,Lat,Lng,BoothType,Province,MaleBooths,FemaleBooths,MaleVoters,FemaleVoters
356,Government Model Boys Primary School Dhara Qanbar Shah(Permanent),30.724305043512782,71.81825041726178,Combined,Punjab,2,2,1268,971
335,Government Boys High School (Middle Portion) Pir Abdul Rehman (Male) (Permanent),30.742422872499635,71.80991979207666,Male,Punjab,3,0,1630,0
336,Government Boys High School (Middle Portion) Pir Abdul Rehman (Male) (Permanent),30.742422872499635,71.8099497920767,Female,Punjab,0,3,0,1295
337,Government Girls High School Pir Abdul Rehman Shumali(Permanent) Middle Portion,30.74786,71.81337,Male,Punjab,3,0,1686,0
338,Government Girls High School Pir Abdul Rehman Shumali(Permanent) High Portion,30.74786,71.8134,Female,Punjab,0,3,0,1304
334,Government Boys Primary School Chak Haideri Basti Afghan (Female) (Permanent),30.75304,71.79731,Female,Punjab,0,4,0,1469
354,Government Girls Community Model School Basti Kasooana (Female) (Permanent),30.77063,71.81442,Female,Punjab,0,2,0,984
353,Goernment Boys Primary School Kasooana (Male),30.77082,71.81352,Male,Punjab,2,0,1192,0
349,Government Boys Primary School Diraj (Permanent),30.77543,71.8492,Combined,Punjab,1,1,696,593
355,Government High School Chak No. 6/3-L (Permanent),30.77557,71.79144,Combined,Punjab,2,2,994,685
352,Government Girls Primary School Kasooana Janoobi (Permanent),30.78641,71.79929,Combined,Punjab,1,1,442,294
342,Government Girls Primary School Chak No. 12/3-L (Permanent),30.78904839947859,71.83554201074594,Combined,Punjab,1,1,651,459
350,Government Boys Elementary School Chak No. 11/3L (Male),30.79351,71.82253,Male,Punjab,2,0,1251,0
351,Government Girls Primary School Chak No. 11/3-L Female (Permanent),30.79562,71.81996,Female,Punjab,0,2,0,940
341,Government Girls High School Hazrat Sultan Bahu (Permanent),30.8127,71.87444,Combined,Punjab,2,2,986,727
344,Government Girls Primary School Chah Mehmood Wala (Permanent),30.81335,71.81141,Combined,Punjab,2,2,1037,747
339,Government Boys High School Hazrat Sultan Bahu (Permanent) Multi Purpes Hall,30.8153,71.87452,Combined,Punjab,1,1,840,585
340,Government Boys High School Hazrat Sultan Bahu (Permanent),30.8153,71.87455,Combined,Punjab,1,1,772,360
348,Government Model Girls Primary School Sewa Sadat (Permanent),30.81724,71.84238,Combined,Punjab,2,2,941,753
345,Government Boys High School (Primary Portion) Dul (Permanent),30.82113,71.83412,Combined,Punjab,1,1,591,462
346,Government Boys High School Dul (Permanent),30.82113,71.83415,Combined,Punjab,1,1,655,506
347,Government Boys High School (Middle Portion) Dul (Permanent),30.82113,71.83418,Combined,Punjab,2,2,860,688
343,Government Girls Primary School Naeem Garwah (Permanent),30.82123,71.79673,Combined,Punjab,1,1,465,359
394,Government Girls Primary School Basti Dub (Garh Maharaja) (Female) (Permanent),30.82955,71.90173,Female,Punjab,0,3,0,1190
393,Government Boys Higher Secondry School (High Portion) Gharh Maharaja (Male) (Permanent),30.83107,71.89841,Male,Punjab,3,0,1454,0
395,Government Boys Higher Secondary School Gharh Maharaja (Male) (Permanent),30.83107,71.89844,Male,Punjab,2,0,1035,0
392,Vocational Training Institute Garh Maharaja City (Male) (Permanent),30.83201,71.90459,Female,Punjab,0,3,0,1543
396,Government Girls High School Gharh Maharaja City (Female) High Portion (Permanent),30.83247,71.89925,Female,Punjab,0,2,0,875
389,Rest House Zila Council Garh Maharaja (Male) (Permanent),30.83419,71.90541,Male,Punjab,2,0,1424,0
390,Rest House Zila Council Garh Maharaja (Permanent),30.83419,71.90544,Female,Punjab,0,2,0,1181
391,Government Boys Primary School Ghulam Hussain Wala (Permanent),30.83905,71.90525,Male,Punjab,4,0,1916,0
397,Government Girls Primary School Chak No. 5/2-L (Permanent),30.84216,71.87688,Male,Punjab,2,0,1365,0
357,Government Boys Primary School Kapuri (Permanent),30.84379,71.80455,Combined,Punjab,2,2,1076,821
329,Government Boys High School Garh Morr (Permanent),30.84413,71.83107,Combined,Punjab,2,2,1131,779
358,Government Girls Elementary School (Primary Portion) Jam Ghulam Abbas Kapuri (Permanent),30.84478,71.79464,Combined,Punjab,2,1,689,486
400,Rest House High Way (Male) (Permanent),30.8456,71.84023,Male,Punjab,3,0,1539,0
402,Government Girls Elementry School (Primary Portion) Garh Morr (Permanent),30.84679,71.84896,Female,Punjab,0,3,0,1532
398,Govt Girls Elementary School Basti Shafqat colony Garh More Permanent,30.84684,71.84892,Female,Punjab,0,2,0,1059
399,Government Girls Primary School Nawazish Nagar (Garh Morr) (Female) (Permanent),30.84768,71.84231,Female,Punjab,0,3,0,1324
401,Government Boys Primary School Burji Wala (Permanent),30.85515,71.87285,Male,Punjab,4,0,1983,0
330,Government Boys Primary School Sheikh Jalal Shah (Permanent),30.86353,71.84734,Combined,Punjab,1,1,440,358
318,Government Boys Primary School Chak No. 3/2-L (Permanent),30.86533,71.8969,Combined,Punjab,1,1,299,193
314,Government Model Boys Primary School Anayat Shah (Male) (Permanent),30.867529386679294,71.94299686283665,Male,Punjab,2,0,1284,0
315,Government Model Girls Primary School Anayat Shah (Female) (Permanent),30.867689364470515,71.94332092503137,Female,Punjab,0,3,0,894
331,Government Boys Primary School Chak No. 1/3-R (Permanent),30.87054,71.83011,Combined,Punjab,1,1,172,91
316,Government Boys Elementry School Mehmood Shah (Permanent),30.875890401388425,71.92670365381623,Combined,Punjab,2,2,969,666
332,Government Boys Elementry School Chak No. 1/3-L (Permanent),30.87604,71.85986,Combined,Punjab,2,1,557,351
313,Government Boys Primary School Janan (Pehlwan Wala) (Permanent),30.87728,71.90144,Combined,Punjab,1,1,1040,698
312,Government Boys Primary School Basti Tarar (Permanent),30.87824,71.87343,Combined,Punjab,1,1,522,343
309,Government Boys High School Gadara (Permanent),30.8925,71.84268,Combined,Punjab,1,1,718,533
323,Government Girls Elementry School Riaz Abad (Female) (Permanent),30.893220838009398,71.930123493513,Female,Punjab,0,2,0,1193
321,Government Boys Primary School Chak No. 2/2-L (Permanent),30.89413,71.90111,Combined,Punjab,1,1,527,368
322,Government Boys Elementary School Jaiwain (Male) (Permanent),30.89787,71.92103,Male,Punjab,3,0,1629,0
311,Government Boys Elementry School Makorian Wala (Permanent),30.90108,71.88306,Combined,Punjab,1,1,559,396
317,Government Boys Primary School Jhook Dargai Shah (Permanent),30.902017971031764,71.95011385063421,Combined,Punjab,1,1,375,263
310,Government Boys Primary School Gadara Sharqi (Permanent),30.90669,71.8609,Combined,Punjab,1,1,675,436
319,Government Model Boys Primary School Mehmood Kot (Male) (Permanent),30.91203,71.89443,Male,Punjab,3,0,1512,0
320,Government Model Girls ? elementry School Mehmood Kot (Female) (Permanent),30.91203,71.89446,Female,Punjab,0,2,0,955
308,Government Boys Primary School Jundal (Permanent),30.91206,71.80961,Combined,Punjab,1,1,850,643
327,Government Girls Primary School Sial Kot (Female) (Permanent),30.91208,71.85085,Female,Punjab,0,3,0,1111
326,Government Boys Elementary School Basti Sial Kot (Male) (Permanent),30.91211,71.85039,Male,Punjab,3,0,1826,0
328,Government Boys Primary School Chak No. 1/2-R (Permanent),30.91485,71.8349,Combined,Punjab,1,1,522,386
408,Government Boys High School Mud Rajbana (Permanent),30.914940789488387,71.97043563610222,Combined,Punjab,2,1,909,652
387,Government High School Mud Rajbana (Male),30.914940789488387,71.9704656361022,Combined,Punjab,2,1,922,673
404,Government Girls Elementary School Meernay Wala (Permanent),30.919072809497667,71.96705680535725,Combined,Punjab,1,1,500,385
388,Government High School Mud Rajbana (Primary Portion) (Female),30.920024642325856,71.97422119278532,Combined,Punjab,1,1,823,548
378,Government Boys Elementary School Douloana (Midldle Portion) (Female) (Permanent),30.924920321256753,71.96966560473142,Combined,Punjab,2,2,969,660
403,Government Boys Primary School Meernay Wala (Male) (Permanent),30.924920321256753,71.9696956047314,Combined,Punjab,1,1,798,536
405,Government Boys Primary School Kot Mapal (Permanent),30.925490841258316,71.98766963029463,Combined,Punjab,2,1,590,392
406,Office Union Council Kot Mapal (Permanent),30.926007694840447,71.98683908495393,Combined,Punjab,2,1,847,546
386,Government Boys Primary School Munir Abad (Permanent),30.93205,71.93114,Combined,Punjab,2,1,822,595
324,Government Boys High School Gilkala (Male) (Permanent),30.93417,71.91607,Combined,Punjab,2,2,1051,709
325,Government Girls High School Sharif Abad (Female) (Permanent),30.93747,71.91647,Combined,Punjab,2,2,1143,697
381,Government Boys Primary School Ahmed Wala (Permanent),30.95173,71.84701,Combined,Punjab,1,1,706,455
407,Government Boys Primary School Boola (Permanent),30.954364614755917,72.00240771295137,Combined,Punjab,2,2,920,650
385,Government Boys Primary School Abbas Khan (Permanent),30.95808,71.94015,Combined,Punjab,2,2,1068,783
409,Government Boys High School Naikokara (Permanent),30.958577661962927,72.02460362282895,Male,Punjab,2,0,1100,0
410,Government Boys High School Naikokara (Permanent),30.958577661962927,72.0246336228289,Female,Punjab,0,2,0,744
382,Government Girls Community Model Primary School (Girls Portion)  Jalal Abad (Permanent),30.96044,71.88301,Combined,Punjab,2,1,1038,630
383,Government Girls Community Model Primary School (Boys Portion)  Jalal Abad (Permanent),30.96044,71.88304,Combined,Punjab,2,1,719,484
359,Government Boys Elementry School Douloana (Primary Portion)  (Permanent),30.9631,71.8716,Combined,Punjab,1,1,525,355
380,Government Model Boys Primary School Douloana (Darbar Sadiq Sawai) (Permanent),30.9649,71.85426,Combined,Punjab,1,1,631,488
384,Government Girls Primary School Durri Gondal (Wasan Wala) (Permanent),30.96647,71.94675,Combined,Punjab,1,1,625,492
379,Government Model Boys Primary School Douloana (Darbar Sadiq Sawai) (Permanent),30.96686,71.85789,Combined,Punjab,1,1,610,430
423,Government Boys Model Primary School Sabqi (Permanent),30.969500752650465,72.00439882084362,Combined,Punjab,2,1,763,500
422,Government Boys Primary School Saboo Wala (Permanent),30.969688077193958,71.97287426587219,Female,Punjab,0,3,0,932
424,Government Girls Model Primary School Sabqi (Permanent),30.969866796426096,72.00493501975558,Combined,Punjab,2,2,1068,779
420,Government Girls Elementry School (Middle Portion) Sabo Wala (Male) (Permanent),30.971540778126236,71.96953317680794,Combined,Punjab,2,1,718,482
421,Government Girls Elementary School  (Primary Portion) Saboo Wala (Female) (Permanent),30.971547262037937,71.96947527112356,Male,Punjab,3,0,1438,0
373,Government Boys Primary School Sadiq Abad (Permanent),30.9794,71.91973,Combined,Punjab,1,1,492,304
365,Government Girls Elementary School  Kot Bahadar Shah  (Female) (Permanent),30.97974,71.95039,Female,Punjab,0,2,0,1308
364,Government Boys High School Kot Bahadar Shah (Male) (Permanent),30.979770395664584,71.95036582624788,Male,Punjab,3,0,1689,0
411,Government Boys Primary School Islam Wala (Permanent),30.98033165570115,72.02484874527084,Combined,Punjab,1,1,650,533
412,Government Girls Primary School Islam Wala (Permanent),30.983309919310383,72.02023629676994,Combined,Punjab,2,1,855,647
360,Government Boys High School (Old Building) Dagri Sharqi (Male) (Permanent),30.992797699086342,71.98133421849955,Male,Punjab,3,0,1386,0
361,Government Boys High School (New Building) Dagri Sharqi (Female) (Permanent),30.992797699086342,71.9813642184996,Female,Punjab,0,2,0,1008
418,Government Boys Elementry School (Old Building) Fateh Pur Perati (Rustam Abad) (Permanent),30.992960209768626,72.0275698447852,Combined,Punjab,2,1,778,591
419,Government Boys Elementry School (New Building) Fateh Pur Perati (Permanent),30.99300115632474,72.02753590223021,Combined,Punjab,1,1,498,395
376,Government Girls Primary School Basti Ahmed Din Bhatti (Permanent),31.00111,71.90645,Combined,Punjab,1,1,588,391
362,Government Boys Primary School Dagri Gharbi (Permanent),31.003788564014993,71.95994739868968,Male,Punjab,3,0,1168,0
363,Government Boys Primary School Dagri Gharbi (Permanent),31.00382,71.95988,Female,Punjab,0,2,0,825
377,Government Boys Primary School Laghari (Permanent),31.00393,71.88947,Combined,Punjab,1,1,322,219
374,Government Boys Elementary School Baharr (Permanent),31.0049,71.92097,Combined,Punjab,2,2,1133,868
413,Government Model Primary School Islam Pur Faraz (Permanent),31.00538987441587,72.05084068632588,Combined,Punjab,1,1,491,402
372,Government Boys Primary School Sipranwan Wala (Permanent),31.00718,71.94746,Combined,Punjab,2,1,852,632
414,Government Girls Primary School Massu Wala (Permanent),31.00887434013748,72.04969866916761,Combined,Punjab,2,1,707,579
417,Government Boys Primary School Rustam Abad (Permanent),31.013014701259305,72.03212315870759,Combined,Punjab,2,2,901,720
375,Government Girls Primary School Sultan Wala Bahar Gharbi (Permanent),31.02007,71.92263,Combined,Punjab,1,1,633,399
425,Government Boys Primary School Joosa (Permanent),31.02062657021151,72.05107505186874,Combined,Punjab,1,1,506,365
367,Government Girls High School (High Portion) Hassu Balail (Female) (Permanent),31.023163712351224,72.00994502224245,Female,Punjab,0,4,0,1372
368,Government Boys Higher Secondry School (Middle Portion) Hassu Balail (Male) (Permanent),31.023163712351224,72.0099750222424,Male,Punjab,2,0,1274,0
369,Government Boys Higher Secondary School (High Portion) Hassu Balail (Female) (Permanent),31.02319,72.00995,Female,Punjab,0,2,0,900
370,Government Boys Higher Secondry School (Middle Portion) Hassu Balail (Male) (Permanent),31.03119114173152,72.00714345712734,Male,Punjab,3,0,1467,0
371,Government Boys Higher Secondary School (High Portion) Hassu Balail (Female) (Permanent),31.031248797799066,72.00716288126482,Female,Punjab,0,3,0,1178
366,Government Boys Higher Secondry School (Primary Portion) Hassu Balail (Permanent),31.03126964867355,72.00712927106868,Male,Punjab,4,0,1986,0
282,Government Boys Primary School Kot Rustum (Permanent),31.03423,72.06403,Combined,Punjab,2,1,700,404
415,Government Boys Secondary School Tibba Gehli (Permanent),31.037135342224893,72.04849707157524,Combined,Punjab,1,1,589,494
416,Government Boys Secondary School (Primary Portion) Tibba Gehli (Permanent),31.037135342224893,72.0485270715752,Combined,Punjab,1,1,780,588
260,Government Boys Higher Secondary School Kalyar Wala (Permanent),31.04811,71.94226,Male,Punjab,2,0,935,0
261,Government Boys Higher Secondary School (High Portion) Kalyar Wala (Permanent),31.04811,71.94229,Female,Punjab,0,2,0,715
275,Government Boys Primary School Kot Umer Draz (Bela Ali Khanana) (Permanent),31.053032291508803,72.14236802079716,Combined,Punjab,1,1,316,203
281,Government Boys Primary School Kot Murad (Permanent),31.05416,72.06103,Male,Punjab,2,0,1028,0
293,Government Girls Primary School Basti Qatala (Rodu Sultan) (Permanent),31.05456,72.00542,Combined,Punjab,1,1,346,266
280,Government Girls Elementary School- Kot Murad,31.05559,72.05835,Female,Punjab,0,2,0,705
296,Oxford Public (PEF) School Kallar Pur Rodu Sultan (Permanent),31.05721,72.00554,Male,Punjab,3,0,1049,0
297,Government Boys Primary School Kallar Pur Rodu Sultan (Permanent),31.05759,72.00446,Female,Punjab,0,4,0,1680
298,Government Girls High School(Primary Portion) Rodu Sultan (Permanent),31.05857,72.00812,Male,Punjab,2,0,1131,0
299,Government Girls High School (Primary Portion) Rodu Sultan (Permanent),31.05857,72.00815,Female,Punjab,0,2,0,811
301,Government Girls Secondary School (Double Story) Rodu Sultan (Permanent),31.05967,71.99758,Combined,Punjab,2,1,693,500
288,Government Boys Elementry School (Primary Campus) Pahar Pur (Permanent),31.06062,72.05687,Female,Punjab,0,2,0,695
289,Government Boys Elementry School Pahar Pur (Permanent),31.06062,72.0569,Male,Punjab,2,0,1048,0
300,Rural Health Center Rodu Sultan (Permanent),31.06121,71.99832,Male,Punjab,2,0,1007,0
291,Government Boys Primary School Taroor (Permanent),31.06121,72.03646,Combined,Punjab,2,1,876,671
292,Government Boys Higher Secondry School (Old Building) Rodu Sultan (Permanent),31.06141,71.99711,Combined,Punjab,1,1,582,352
295,Government Boys Higher Secondry School (High Portion) Rodu Sultan (Permanent),31.06148,71.99712,Female,Punjab,0,2,0,758
294,Government Boys Higher Secondry School (Primary Portion) Rodu Sultan (Permanent),31.06148,71.99715,Male,Punjab,2,0,1052,0
287,Government Girls Primary School- Kot Asif Khan (Permanent),31.08021,72.03703,Combined,Punjab,2,1,611,381
274,Government Boys Primary School Dhan Miani (Permanent),31.08203,72.0726,Combined,Punjab,2,1,833,545
270,Government Boys Primary School Basheer Abad Dargahi Shah(Permanent),31.08511,72.0374,Combined,Punjab,1,1,445,316
290,Government Boys Primary School Pirowana Shumali (Permanent),31.09331,72.06963,Combined,Punjab,2,1,785,486
263,Government Boys Primary School (Zafar Abad) Rehar (Permanent),31.09447,71.97393,Combined,Punjab,1,1,495,367
264,Government Girls Primary School Hassan Abad ( Abadi Chak No. 10/3-Thal) (Permanent),31.09454,71.94891,Combined,Punjab,2,1,691,503
283,Government Girls High School Lashari (Permanent),31.09613,72.01312,Combined,Punjab,1,1,485,350
286,Government Boys High School (Middle Portion) Lashari (Permanent),31.09782,72.00998,Female,Punjab,0,2,0,557
285,Government Boys High School (Primary Portion) Lashari (Permanent),31.09782,72.01001,Male,Punjab,2,0,848,0
284,Government Boys High School Lashari (Permanent),31.09812,72.00999,Combined,Punjab,1,1,654,501
276,Government Boys High School (Primary Portion) Jaboana (Permanent),31.10208,72.08607,Male,Punjab,3,0,1128,0
278,Government Boys High School (High Portion) Jaboana (Permanent),31.10208,72.0861,Combined,Punjab,2,2,843,732
279,Government Boys High School Jaboana(Middle Portion) (Permanent),31.10208,72.08613,Combined,Punjab,1,1,551,443
262,Government Elementry School Chak No. 10/4 Thal (Permanent),31.10383,71.86964,Combined,Punjab,1,1,243,179
242,Government Primary School- Binda Rasheed Pur (Permanent),31.10966,72.13054,Male,Punjab,2,0,1073,0
268,Government Girls High School (Imran Abad) Sultan Lashari (Permanent),31.11031,72.05347,Female,Punjab,0,2,0,800
273,Government Girls Primary School Dargahi Shah (Permanent),31.1158,72.04723,Combined,Punjab,1,1,342,241
271,Government Boys Model Elementry School Dargahi Shah (Permanent),31.11939,72.04736,Male,Punjab,3,0,996,0
272,Government Boys Model Elementry School (Middle Portion) Dargahi Shah (Permanent),31.11939,72.04739,Female,Punjab,0,3,0,726
269,Government Boys Primary School Sultan Lashari (Permanent),31.12193,72.01376,Male,Punjab,3,0,1079,0
303,Government Girls Elementary School Chah Kariwala Uch Gul Imam (Permanent),31.12718,72.00316,Male,Punjab,3,0,1261,0
304,Government Girls Elementary School Chah Kariwala Uch Gul Imam (Permanent),31.12718,72.00319,Female,Punjab,0,3,0,861
245,Government Girls High School (Middle Portion) Rasheed Pur (Permanent),31.12859,72.09046,Female,Punjab,0,2,0,795
243,Government Girls High School (Primary Portion) Rasheed Pur (Permanent),31.12859,72.09049,Female,Punjab,0,3,0,1446
244,Government Girls High School Rasheed Pur (Permanent),31.12859,72.09052,Male,Punjab,2,0,1088,0
241,Government  Elementry School (Primary Portion) Rasheed Pur (Permanent),31.12863,72.09197,Male,Punjab,2,0,917,0
302,Government Boys High School Uch Gul Imam (Permanent),31.13175,71.97807,Combined,Punjab,2,1,841,701
258,Government Girls Primary School Chak No. 10/1 Thal (Permanent),31.14201,71.87332,Female,Punjab,0,2,0,856
259,Government Boys High School Chak No. 10/1 Thal (Permanent),31.14238,71.87677,Male,Punjab,2,0,1195,0
240,Government Boys Primary School Jamali Kalan (Permanent),31.146010362133108,72.05820960719531,Combined,Punjab,2,1,689,527
225,Government Girls Primary School Chah Gulab Wala (Permanent),31.14944,71.90673,Combined,Punjab,1,1,509,333
247,Government Boys Primary School Kot Bahadar Janubi (Permanent),31.15103,72.09693,Combined,Punjab,2,1,825,574
236,Government Boys Primary School Malkana (Permanent),31.15408,72.10619,Combined,Punjab,2,2,887,700
306,Government Boys Elementry School Sikandar Abad Wasawa (Permanent),31.155971415755776,72.0404440944263,Male,Punjab,3,0,1291,0
307,Government Boys Elementry School Sikandar Abad Wasawa (Permanent),31.15598,72.04047,Female,Punjab,0,3,0,952
305,Government Boys Primary School Sikandar Abad Wasawa (Permanent,31.164558953722096,72.01626376907456,Combined,Punjab,1,1,461,379
239,Government Girls Elementry School Chukan Jan Pur  (Middle Portion) (Permanent),31.16851,72.09574,Female,Punjab,0,2,0,1022
238,Government Girls Elementry School Chukan Jan Pur (Permanent),31.16851,72.09577,Male,Punjab,2,0,1252,0
237,Government Boys Elementry School Chukan Jan Pur (Permanent),31.16949531537837,72.09683674261419,Combined,Punjab,2,2,852,656
230,Government Boys Primary School Ferozi (Jamali Khurd) (Permanent),31.16976592926507,72.06410234730198,Combined,Punjab,1,1,627,502
222,Veternary Hospital- 18-Hazari (Permanent),31.17389660744159,72.0969590633639,Combined,Punjab,1,1,688,669
253,Government Boys High School Wasu Astana (Permanent),31.18041,72.08514,Male,Punjab,3,0,1145,0
254,Government Boys High School (Middle Portion) Wasu Astana (Permanent),31.180505764370324,72.08511531273372,Female,Punjab,0,2,0,851
251,Government Boys High School Wasu Astana (Permanent),31.185422125805207,72.07199012801286,Male,Punjab,2,0,1073,0
229,Government Girls Primary School Kikar Wala (Jamali Khurd No. 01) (Permanent),31.18668324713132,72.04391007515692,Female,Punjab,0,2,0,848
228,Government Primary School Kikar Wala  (Permanent),31.18681,72.04319,Male,Punjab,2,0,996,0
257,Government Girls Higher Secondry School (Middle Portion) Wasu Astana (Permanent),31.18815,72.07857,Female,Punjab,0,3,0,1150
256,Government Girls Higher Secondry School Wasu Astana (Permanent),31.188188735636224,72.07831543450743,Male,Punjab,3,0,1326,0
255,Government Boys Primary School Astana (Permanent),31.190203196891275,72.0819583608603,Combined,Punjab,2,1,793,641
223,Government Girls Model Primary School Kamra (Permanent),31.191223837285474,72.12460287119066,Combined,Punjab,1,1,516,425
249,Government Model Primary School (Girls Campus) Imrana Janubi (Permanent),31.1965,72.09624,Female,Punjab,0,2,0,886
248,Government Boys Primary School Imrana Janubi (Permanent),31.19650283383818,72.09623991363722,Male,Punjab,2,0,1127,0
267,Government Primary School Sattan Thal (Permanent),31.19901,71.8864,Combined,Punjab,2,1,971,478
226,Government Elementry School Daal Morr (Permanent),31.20486180860136,72.03956650565318,Male,Punjab,2,0,1316,0
232,Government Boys Primary School Kotla Naik Ahmed (Permanent),31.20753828770604,72.08061829269022,Combined,Punjab,1,1,630,486
250,Government Boys Primary School Bela Chuntra (Permanent),31.22278100723152,72.13765990954359,Combined,Punjab,1,1,577,410
231,Government Girls Primary School Dhabbi (Permanent),31.22601067581516,72.09668209867971,Combined,Punjab,2,1,654,460
235,Government Boys Primary School Haq Bahu Colony (Permanent),31.22965,72.04626,Combined,Punjab,1,1,391,261
233,Government Girls Primary School Haq Bahu Colony (Permanent),31.229887206206488,72.04543465461153,Combined,Punjab,1,1,743,593
144,Government Boys Primary School Bulah Patoana,31.23162,72.1611,Combined,Punjab,2,1,843,641
192,Government English Medium Boys Elementary School Chaily Wala (Permanent),31.237054229258156,71.97600208367783,Combined,Punjab,2,2,745,655
193,Government Girls Primary School Chaily Wala (Permanent),31.239495728403874,71.97051846905896,Combined,Punjab,1,1,504,320
221,Government Model Primary School kharal Sipra(Permanent),31.240056694104076,72.08841128203416,Female,Punjab,0,2,0,821
145,Government Girls Primary School Chak Jan Pur,31.24175,72.19817,Combined,Punjab,2,1,859,638
234,Government Boys Model Primary School Ram Pur (Permanent),31.242134353271545,72.0601270569109,Combined,Punjab,1,1,537,408
148,Government Boys Primary School Namdar Phulli,31.24871,72.17403,Combined,Punjab,1,1,631,548
224,Government Boys Elementry School Bharay Thal (Permanent),31.252261590268464,71.91248482069429,Combined,Punjab,2,2,845,629
147,Government Boys Elementry School Bindi Patoana Kalan,31.2529,72.15159,Combined,Punjab,2,1,789,600
150,Government Boys Primary School Tahli Gaddan Wali,31.2549,72.21014,Combined,Punjab,2,1,734,541
194,Government Boys Primary School Sabeel Pur (Permanent),31.255531349587095,72.04918379910531,Combined,Punjab,2,2,684,601
195,Government Boys Elementry School Kotli Baqir Shah (Permanent),31.25779455216979,72.0504439862489,Male,Punjab,2,0,863,0
196,Government Girls Elementry School Kotli Baqir Shah (Permanent),31.25807,72.051,Female,Punjab,0,2,0,644
266,Government Boys Elementry School (New Block) Kashmir Colony (Chak No. 11/1 Thal) (Permanent),31.25911,71.8798,Female,Punjab,0,2,0,664
265,Government Boys Elementry School Kashmir Colony (Chak No. 11/1 Thal) (Permanent),31.25911,71.87983,Male,Punjab,2,0,948,0
220,Government High School Subhiana Gharbi (Permanent),31.26019,72.09447,Male,Punjab,2,0,1038,0
157,Government Boys High School Pir Kot Sadhana,31.27048,72.16383,Male,Punjab,3,0,1403,0
158,Government Boys High School Pir Kot Sadhana,31.27048,72.16386,Female,Punjab,0,3,0,1095
159,Government Boys Elemantry School Pir Kot Sadhana,31.271,72.15919,Combined,Punjab,1,1,450,383
218,Government Girls Elementry School Munday Syed (Permanent),31.27646401020816,72.0879528379457,Male,Punjab,2,0,921,0
219,Basic Health Unit Munday Syed (Permanent),31.27807,72.06898,Female,Punjab,0,2,0,801
210,Government Boys High School Kot Maldev (Permanent),31.284071140176025,72.08587301192424,Combined,Punjab,2,2,969,655
205,Government Boys Primary School Doosa (Permanent),31.28618512908255,72.06608590620434,Combined,Punjab,1,1,562,426
146,Government Girls Primary School Nikkay Balouchan,31.29448,72.13659,Combined,Punjab,2,2,823,689
152,Government Boys Primary School Lala Johla,31.29642,72.15497,Combined,Punjab,1,1,557,437
151,Government Boys Primary School Kot Behram,31.30144,72.14697,Combined,Punjab,2,1,704,610
197,Government Boys Elementary School Kunnal Sheroana (Primary Portion) (Nasir Abad) (Permanent),31.30615,72.05519,Female,Punjab,0,2,0,909
198,Government Boys Elementary School Kunnal Sheroana (Nasir Abad) (Permanent),31.30615,72.05522,Male,Punjab,2,0,1031,0
156,Government Girls Primary School Massan,31.308339650564395,72.18734433453162,Combined,Punjab,2,1,764,668
155,Government Boys Primary School Massan,31.309098108086484,72.1873595900259,Combined,Punjab,2,1,905,625
160,Government Boys Model Primary School Sajhar Kalasan,31.31482,72.1284,Combined,Punjab,2,1,789,630
135,Government Girls Primary School Chak Darzi,31.316328813135662,72.22132581090173,Combined,Punjab,1,1,627,529
203,Government English Medium Boys High School Chohan (Permanent),31.323738662248235,72.07392248183174,Combined,Punjab,2,1,756,565
134,Government  Boys Middle School Jharki,31.326261977900934,72.21624493157024,Combined,Punjab,1,1,534,371
136,Government Girls Primary School Jharki,31.333918728775448,72.22177141846507,Combined,Punjab,1,1,406,273
163,Government Boys Primary School Talwara,31.33526,72.15508,Combined,Punjab,1,1,556,450
153,Government Boys Primary School Khotiana,31.33728,72.12971,Combined,Punjab,2,1,713,504
161,Government Boys High School Salyana,31.34479,72.14085,Male,Punjab,2,0,1064,0
162,Government Boys High School Salyana,31.34479,72.14088,Female,Punjab,0,2,0,879
164,Government Girls Elemantry School Salyana,31.34862,72.13764,Combined,Punjab,1,1,660,492
141,Government Boys Primary School Najabat,31.35453,72.12795,Combined,Punjab,2,2,1028,790
131,Government Girls Primary School Chak Jalal Din,31.35981,72.18894,Combined,Punjab,2,1,857,608
154,Government Boys Primary School Bela Bhorana,31.36128,72.12486,Combined,Punjab,1,1,399,363
132,Government Boys Elemantry School Chak Pir Behlol,31.3615,72.18681,Male,Punjab,2,0,951,0
133,Government Boys Elemantry School Chak Pir Behlol,31.3615,72.18684,Female,Punjab,0,2,0,721
200,Government Girls Primary School Loha Bhir (Permanent),31.36257430334156,72.05684533023295,Combined,Punjab,1,1,513,386
143,Government Boys Primary School Jhaggar (Chaila),31.37089,72.13697,Combined,Punjab,2,2,958,765
211,Government Girls High School Machi Wal (Permanent),31.38056690621514,72.07390437143148,Combined,Punjab,2,1,826,657
140,Government Boys Secondary School Chaila,31.38705,72.14314,Combined,Punjab,2,1,859,699
142,Government Boys Secondary School Chaila,31.38705,72.14317,Combined,Punjab,2,2,895,738
138,Government Girls Primary School Hassan Khan,31.38762018191501,72.23513096805698,Combined,Punjab,2,1,741,528
139,Government Boys Middle School (Middle Portion) Hassan Khan,31.387831841334396,72.23535408405426,Combined,Punjab,2,1,793,546
116,Government Girls High School Shair Chakar,31.38998,72.20038,Combined,Punjab,2,1,893,653
137,Government Boys Middle School Hassan Khan,31.390584367952172,72.22790717915318,Combined,Punjab,2,1,701,437
117,Government Boys High School Haveli Sheikh Raju,31.39317,72.19959,Male,Punjab,2,0,945,0
118,Government Boys High School Haveli Sheikh Raju,31.39317,72.19962,Female,Punjab,0,2,0,741
129,Government Girls Elementary School Kabli,31.40651,72.13756,Male,Punjab,2,0,1074,0
130,Government Girls Elementary School Kabli,31.40651,72.13759,Female,Punjab,0,2,0,837
217,Government Boys Primary School Kacha Dhapra Chak No.7/1 Thal Janubi (Permanent),31.407278514413633,71.98518308362618,Combined,Punjab,1,1,360,313
216,Government Girls Primary School Sial (Permanent),31.40772104943003,72.0813655678215,Combined,Punjab,2,1,778,560
9,Government Girls Primary School Daduana,31.407723446664093,72.28441177961498,Combined,Punjab,1,1,553,412
215,Government Girls Elementry School Machiana (Permanent),31.414676298691855,72.07835812037429,Combined,Punjab,2,1,759,611
34,Government Girls High School Chund Bharwana,31.416590935266278,72.26393947781064,Combined,Punjab,2,2,935,718
35,Government Girls High School Chund Bharwana,31.416590935266278,72.2639694778106,Combined,Punjab,1,1,303,277
32,Government Boys High School Chund Bharwana,31.4185516121369,72.26200230572074,Combined,Punjab,2,1,939,478
33,Government Boys High School Chund Bharwana,31.4185516121369,72.2620323057207,Combined,Punjab,2,1,706,679
121,Government Girls Primary School Jangal Katora,31.420285830883344,72.19158836545897,Combined,Punjab,1,1,490,332
126,Government Model Primary School Rajana (Girls Potion),31.422676014099196,72.14995749041535,Combined,Punjab,1,1,460,407
128,Government  ?Model Primary School Rajana (Male Portion),31.422676014099196,72.1499874904153,Combined,Punjab,1,1,560,468
212,Government Boys Primary School Sahjhar Sharqi(Permanent),31.426826981909947,72.12108774388103,Combined,Punjab,2,1,875,614
36,Government Girls Primary School Budhi Thatti,31.426975860398624,72.23286384450626,Combined,Punjab,1,1,685,565
7,Government Boys Primary School Thatta Sundrana (Thatta Korriana),31.43538,72.27229,Combined,Punjab,1,1,581,382
8,Government Boys Primary School Thatta Sundrana (Thatta Korriana),31.43538,72.27232,Combined,Punjab,1,1,561,506
25,Government Boys High School Ali Pur,31.43538,72.27235,Male,Punjab,3,0,1728,0
213,Government Boys High School Sajhar (Permanent),31.435959159407208,72.07761977003751,Male,Punjab,2,0,979,0
214,Government Boys High School Sajhar (Primary Portion) (Permanent),31.4362,72.07761,Female,Punjab,0,2,0,628
127,Government Girls Primary School Sajhowal,31.43993,72.15601,Combined,Punjab,2,1,632,488
125,Government Boys Elementry  School Sahjowal,31.439947326243928,72.1561956635784,Combined,Punjab,1,1,625,514
26,Government Girls High School Ali Pur,31.442399904560087,72.28362782176421,Female,Punjab,0,2,0,1301
119,Government Boys Middle School Kala Bali,31.449551069488223,72.20218999713939,Combined,Punjab,1,1,541,393
120,Government Boys Middle School Kala Bali,31.449551069488223,72.2022199971394,Combined,Punjab,1,1,551,423
122,Government Boys High School Kot Khan,31.457755686947554,72.15620110585914,Combined,Punjab,2,1,807,562
123,Government Girls Elementary School Kot Khan,31.460264965184013,72.15675346685035,Combined,Punjab,2,1,764,589
207,Government Model  Primary School Haveli Haji Mehmood (Permanent),31.46392,72.09378,Male,Punjab,2,0,1186,0
208,Government Model Boys Primary School Haveli Haji Mehmood (Permanent),31.46392,72.09381,Female,Punjab,0,2,0,764
40,Government Boys Primary School Rasool Pur,31.467034345629358,72.25981842146399,Combined,Punjab,1,1,606,410
37,Government Girls Primary School Chak Hamza Wala,31.47587278172673,72.27176172546095,Combined,Punjab,1,1,469,382
38,Government Girls Primary School Chak Hamza Wala,31.47587278172673,72.2717917254609,Combined,Punjab,2,1,825,459
39,Government Girls Primary School Chak Balouchan Wala,31.477154049689457,72.21354318853612,Combined,Punjab,1,1,684,491
44,Government Boys Primary School Haveli Dewan,31.47929455983591,72.19905573138034,Combined,Punjab,1,1,610,407
206,Government Girls Primary School Haider Wala Ada Kot Shakir (Permanent),31.480093295181735,72.0672413765928,Combined,Punjab,1,1,646,447
124,Government Girls Primary School Guniana,31.481134655205864,72.14344380478725,Combined,Punjab,1,1,625,464
169,Government Boys High School Kot Shakir (Permanent),31.482007395180975,72.08667637340062,Combined,Punjab,1,1,400,265
171,Government Boys High School Kot Shakir (Middle Portion) (Permanent),31.482007395180975,72.0867063734006,Female,Punjab,0,2,0,853
170,Government Boys Primary School Kot Shakir (Permanent),31.482636179905423,72.09095045953694,Male,Punjab,2,0,1107,0
5,Government Boys Elementry School Tahatta Jhabana,31.48309,72.30839,Combined,Punjab,2,1,711,521
172,Government Girls English Medium High School Kot Shakir (Permanent),31.48419874462271,72.08386166669295,Combined,Punjab,2,1,679,525
4,Government Girls Community Model School- Hussain Abad Thatha Jhabana,31.48423826757144,72.30822432943197,Combined,Punjab,2,2,981,753
43,Government Boys Primary School Iqbal Nagar,31.48681383750574,72.24582940013804,Combined,Punjab,1,1,589,465
209,Government Boys Primary School Budhiana Baloch Wala Chak NO.7/3 Thal Shumali(Permanent),31.49710204863542,71.96839861415944,Combined,Punjab,1,1,515,298
27,Government Girls Primary School Mongar,31.50248,72.34508,Combined,Punjab,1,1,340,282
177,Government Model Primary School Thatti Khair Shah (Permanent),31.502595869251962,72.14997614685664,Combined,Punjab,1,1,468,318
42,Office Union Council Pabbar Wala,31.507014423487494,72.23809696587928,Combined,Punjab,2,1,907,616
174,Government Girls Primary School Thatti Gul (Permanent),31.50714285162269,72.10720911220825,Combined,Punjab,1,1,473,366
41,Government Boys Elementry School Pabbar Wala,31.50843384140648,72.2406942035375,Combined,Punjab,1,1,446,323
6,Government Girls Primary School Chak Murad,31.50929867337852,72.26743917174619,Combined,Punjab,1,1,435,291
1,Government Boys Primary School Balian,31.509651188894637,72.37115664865958,Combined,Punjab,2,1,756,487
182,Government Boys English Medium Elementry School Chandna (Permanent),31.51022384664643,72.09646881755388,Combined,Punjab,1,1,486,372
181,Government Girls Elementary School Chandna (Permanent),31.513004118628228,72.08591896576826,Combined,Punjab,1,1,567,440
112,Government Model Primary School-Thatti Panah,31.5131,72.16931,Combined,Punjab,2,1,702,444
28,Government Boys Primary School Sher Garh,31.51431,72.35185,Combined,Punjab,1,1,568,535
23,Office Union Council No.37 Shah Jewna,31.51691,72.34108,Male,Punjab,2,0,978,0
22,Government Boys High Shah Jewana (Primary Portion),31.51852,72.33979,Combined,Punjab,1,1,461,446
20,Government Girls High School Shah Jewana,31.52077,72.33913,Female,Punjab,0,3,0,1514
45,Government Boys Primary School Qutab Awan,31.521550787172387,72.26327583242222,Combined,Punjab,2,1,906,626
46,Government Girls Primary School Onara,31.52395774857096,72.30010191665848,Combined,Punjab,1,1,550,441
19,Government Boys High School Shah Jewana,31.52404,72.34364,Male,Punjab,3,0,1662,0
21,Government Boys High Shah Jewana (Primary Portion),31.52404,72.34367,Combined,Punjab,1,1,512,491
24,Govt Boys High School Shah Jewna,31.52404,72.3437,Female,Punjab,0,2,0,798
173,Government Girls Primary School Bela Sheher (Permanent),31.525610706140366,72.09831237521328,Combined,Punjab,1,1,649,428
99,Government Boys Middle School Kalera,31.527026365776372,72.1601492799937,Combined,Punjab,2,1,962,676
48,Government Model Primary School (Boys Campus)  Turbat Haji Shah,31.533247832264674,72.22707640658186,Combined,Punjab,1,1,696,465
49,Government Model Primary School (Girls Campus)  Turbat Haji Shah,31.533247832264674,72.2271064065819,Combined,Punjab,1,1,524,291
31,Government Boys Primary School Abid Sttad Kot Dharaman,31.53456,72.31213,Combined,Punjab,2,2,858,669
175,Government Boys Primary School Muhammad Wala (Paroopi) (Permanent),31.536652689270642,72.10503239747993,Combined,Punjab,1,1,383,287
63,Government Model Primary School Kangra,31.53730614386776,72.2893606614352,Combined,Punjab,2,1,806,621
180,Government Girls Primary School Butta Kotla 7/2 Thal Shumali (Permanent),31.543589625986993,72.10644938624287,Combined,Punjab,1,1,667,483
100,Government Model Primary School Sabbar,31.54359672405498,72.16526667083039,Combined,Punjab,1,1,444,319
47,Government Boys Primary School Bair Wali,31.544680412284787,72.2726503494199,Combined,Punjab,2,1,801,589
3,Basic Health Unit Panjgarain,31.54735,72.38387,Combined,Punjab,1,1,619,431
105,Government Model Primary School Bhamb,31.552438117610944,72.2323090521755,Combined,Punjab,2,2,1082,794
178,Government Boys Primary School- Akerian Wala 7/2 Thal Shumali (Permanent),31.55368,72.01104,Male,Punjab,2,0,785,0
176,Government Boys Primary School Akerian Wala 7/2 Thal Shumali (Permanent),31.553683636661752,72.01097616990349,Combined,Punjab,1,1,314,228
101,Government Boys Primary School Laghari,31.555209187276922,72.1561563512433,Combined,Punjab,1,1,677,525
50,Government Boys Primary School Sharih,31.555874173807908,72.25271040760924,Combined,Punjab,2,2,1167,820
10,Government Model Primary School (Boys Campus) Dosera,31.55795,72.35323,Combined,Punjab,2,2,957,790
11,Government Model Primary School (Girls Campus) Dosera,31.55795,72.35326,Combined,Punjab,1,1,575,520
2,Government Boys Primary School Punjgarain,31.55967,72.38673,Combined,Punjab,1,1,700,551
29,Government Boys Elementry School Wadan,31.560790030869452,72.33069497501876,Combined,Punjab,1,1,516,416
30,Government Boys Elementry School Wadan,31.560790030869452,72.3307249750188,Combined,Punjab,2,1,793,666
57,Government Boys Higher Secondary School Mandi Shah Jewana,31.560794778136568,72.28757511485854,Combined,Punjab,1,1,642,527
58,Government Girls community Model School Mahar Wali,31.5621501521622,72.28845296505816,Combined,Punjab,2,1,623,476
59,Government Girls community Model School Mahar Wali,31.5621501521622,72.2884829650582,Combined,Punjab,1,1,535,391
55,Government Girls High School Mandi Shah Jewana,31.564777330435245,72.29124387994942,Female,Punjab,0,2,0,847
56,Government Girls High School Mandi Shah Jewana,31.564777330435245,72.2912738799494,Male,Punjab,2,0,985,0
183,Government Girls English Medium Primary School Aura (Permanent),31.566772953983378,72.11206504208401,Combined,Punjab,2,2,863,677
104,Government Boys Primary School Douka Balouchan,31.56780623973717,72.17253189812794,Combined,Punjab,2,2,999,616
52,Government Girls Elemantry School Nawan Thatha,31.568711325405474,72.29051719599586,Combined,Punjab,1,1,512,434
53,Government Boys Elemantry School Kot Ahmad Yar,31.568922497273842,72.29109696560369,Combined,Punjab,1,1,586,479
54,Government Boys Elemantry School Kot Ahmad Yar,31.568922497273842,72.2911269656037,Combined,Punjab,1,1,469,335
12,Government Boys Elementry School Ratta Matta (Primary Portion),31.57023,72.40858,Male,Punjab,2,0,1295,0
13,Government Boys Elementry School Ratta Matta (Middle Portion),31.57023,72.40861,Female,Punjab,0,2,0,930
15,Government Boys Primary School Ratta Kalan,31.57023,72.40864,Combined,Punjab,2,1,842,565
61,Government Girls Primary School Ghazi Abad,31.570688573487015,72.29445891758915,Combined,Punjab,2,1,817,674
62,Government Girls Primary School Ghazi Abad,31.570688573487015,72.2944889175891,Combined,Punjab,1,1,541,459
60,Government Boys Primary School Ramana,31.570753772718582,72.30923202493321,Combined,Punjab,2,1,887,674
179,Government Girls Primary School Abadi Goraya 7/2 Thal Shumali (Permanent),31.570826763820463,72.10323179760306,Female,Punjab,0,2,0,690
107,Government Boys Primary School Jamal Wala,31.5712,72.21621,Female,Punjab,0,2,0,705
17,Government Boys Elementry School Ratta Matta,31.57913,72.42971,Combined,Punjab,1,1,608,497
113,Government Boys Primary School Qadir Pur Bakhsha Kacha,31.581705946966494,72.16979517799416,Combined,Punjab,2,2,879,645
16,Government Girls High School Ratta Kalan,31.584,72.43078,Combined,Punjab,2,1,910,631
18,Basic Health Unit Ratta Matta,31.58416,72.41916,Combined,Punjab,2,1,841,637
114,Government Girls Primary School Jamal Wala,31.585135284138097,72.2113611445374,Combined,Punjab,2,1,844,578
115,Government Boys Elementry School Sultan Bux,31.586609019062543,72.18503790984124,Combined,Punjab,2,1,854,574
51,Government Boys Primary School Hissam,31.592270832050673,72.28862268735764,Combined,Punjab,1,1,581,462
14,Government Girls Primary School Matta,31.59518,72.40057,Combined,Punjab,1,1,566,374
66,Government Model Primary School Chah Fateh Darya,31.595253681905053,72.31413446548254,Combined,Punjab,2,1,748,543
106,Government Girls High School Chatta,31.599570326016984,72.18459266380457,Male,Punjab,2,0,926,0
109,Government Boys High School (Middle Portion) Chatta,31.605271692746964,72.17713810964916,Combined,Punjab,1,1,464,343
103,Government Model Primary School Bindi Lal Mureed,31.607154240628308,72.21434093002544,Combined,Punjab,1,1,674,488
188,Government Girls English Medium High School Mari Shah Sakhira (Permanent),31.607448388099936,72.10754191258614,Combined,Punjab,2,1,639,498
191,Government Boys Primary School Babranwala- Mari Shah Sakhera (Permanent),31.60774276456206,72.10041376094931,Female,Punjab,0,2,0,688
64,Government Girls Elementary School Kari Wala,31.607874222226673,72.34239128543821,Combined,Punjab,2,1,724,533
65,Government Girls Elementary School Kari Wala,31.607874222226673,72.3424212854382,Combined,Punjab,2,2,983,677
185,Government Boys High School Mari Shah Sakhira (Permanent),31.61135122743739,72.10805459819237,Male,Punjab,2,0,1105,0
186,Government Boys High School (Primary Portion) Mari Shah Sakhira (Permanent),31.61135122743739,72.1080845981924,Female,Punjab,0,2,0,900
187,Government Boys High School Mari Shah Sakhira (Permanent),31.61135122743739,72.1081145981924,Combined,Punjab,1,1,669,542
190,Government Boys High School (Primary Portion) Mari Shah Sakhira (Permanent),31.61152,72.10809,Male,Punjab,2,0,1008,0
184,Government Girls Primary School Mari Shah Sakhira (Mari Balouchan) (Permanent),31.619188640179434,72.10870413501574,Combined,Punjab,1,1,615,414
111,Government Girls Primary School Thatti Qureshi,31.619956605823077,72.19042449059631,Combined,Punjab,1,1,526,418
67,Government Boys Primary School Tahli Latif Pur,31.623309227513463,72.3579185439076,Combined,Punjab,2,2,1029,754
68,Government Boys Primary School Shah Murad,31.62598990207391,72.41336554504122,Combined,Punjab,2,1,799,477
102,Government Boys High School Lau,31.627357486245078,72.20509646246003,Combined,Punjab,1,1,662,576
110,Government Girls Primary School Kiran,31.631275155248257,72.17054044570862,Combined,Punjab,2,1,779,550
70,Government Boys Primary School Mahabli Sultan,31.640126262250934,72.39950913271107,Combined,Punjab,1,1,558,415
108,Government Boys Primary School Mazari,31.648834500614655,72.18405419461111,Combined,Punjab,2,1,668,513
75,Government Model Primary School Bindi Haidan (Girls Portion),31.660415340821892,72.18432566387985,Combined,Punjab,2,2,893,642
78,Government Boys Primary School Haidan,31.660415340821892,72.1843556638798,Combined,Punjab,2,1,881,697
76,Government Boys Primary School Attuana,31.661924940947298,72.25569470582046,Combined,Punjab,1,1,469,393
86,Government Girls Elementary School Dholka Colony,31.665013147512493,72.27039580317357,Male,Punjab,2,0,986,0
87,Government Girls Elementary School Dholka Colony,31.665013147512493,72.2704258031736,Female,Punjab,0,2,0,775
69,Government Boys Primary School Ghorri Wala,31.66620470192811,72.41014663673636,Combined,Punjab,2,1,735,443
77,Government Girls Primary School Duaba,31.67782781317223,72.18930293961643,Combined,Punjab,1,1,766,531
85,Government Model Primary School Koolar,31.679926969119016,72.20696363393948,Combined,Punjab,1,1,485,361
84,Government Girls Primary Zafar Colony,31.684092768301575,72.26729539977094,Combined,Punjab,2,2,834,644
165,Government Boys Primary School Tattar Kot,31.68455094730964,72.13836103950472,Combined,Punjab,2,2,866,658
90,Government Boys High School (Primary Portion) Kot Essa Shah,31.68650538231647,72.19446058569602,Combined,Punjab,1,1,565,449
89,Government Boys High School Kot Essa Shah,31.68651138142964,72.19446272424264,Combined,Punjab,1,1,666,456
91,Government Girls High School Kot Essa Shah,31.68784674636524,72.19733399683544,Combined,Punjab,2,1,677,558
82,Government Boys High School Long Shumali,31.690862923489444,72.26632533373693,Male,Punjab,2,0,1195,0
83,Government Boys High School Long Shumali,31.690862923489444,72.2663553337369,Female,Punjab,0,2,0,873
81,Government Girls Primary School Pattai Illan Wali,31.698640734924844,72.20434894148288,Combined,Punjab,2,1,694,484
80,Government Model Primary School Dhorri Wala,31.711046808457503,72.266835487732,Combined,Punjab,2,1,673,538
95,Government Boys Elementry School Bhairo,31.720137005962503,72.30248166365294,Combined,Punjab,1,1,378,328
96,Government Boys Elementry School Bhairo,31.720137005962503,72.3025116636529,Combined,Punjab,1,1,567,461
166,Government Girls Elementary School Bullo,31.72134,72.15215,Combined,Punjab,1,1,585,436
168,Government Girls Elementary School Bullo,31.72134,72.15218,Female,Punjab,0,2,0,850
97,Government Girls Elementry School Bhairo,31.721415884344587,72.31288286526286,Combined,Punjab,1,1,436,337
98,Government Girls Elementry School Bhairo,31.721415884344587,72.3129128652629,Combined,Punjab,2,1,690,506
189,Government Girls Elementary School Bullo (Permanent),31.721510428092746,72.15243878844912,Combined,Punjab,1,1,317,233
167,Government Boys High School Bullo,31.72227,72.15029,Male,Punjab,2,0,1055,0
93,Government Girls Primary School Dhokar,31.727947150952406,72.20594027358612,Combined,Punjab,1,1,678,536
88,Government Boys Primary School Nidha Ghar,31.7320754221877,72.24536272577514,Combined,Punjab,2,2,829,624
79,Government Girls ? Elementry Boori,31.733586487664116,72.2676883201415,Combined,Punjab,2,1,685,586
92,Government Girls Primary School Sargana,31.73378005523263,72.22550219619129,Combined,Punjab,1,1,580,455
94,Government Boys Primary School Piro,31.73430517593059,72.33139380874313,Combined,Punjab,1,1,623,498
74,Government Girls Elementry School Jhok Daya,31.75848,72.2261,Combined,Punjab,2,2,939,749
71,Government Boys Elementry School Bhoon,31.770259458373918,72.24750116443649,Combined,Punjab,1,1,431,353
72,Government Girls High School Bhoon,31.77232316053606,72.24864862279543,Combined,Punjab,1,1,466,365
73,Government Girls High School Bhoon,31.77232316053606,72.2486786227954,Combined,Punjab,1,1,555,484
