PollingStation,Lat,Lng,BoothType,Province,MaleBooths,FemaleBooths,MaleVoters,FemaleVoters
 276 - Government Girls Primary School  Goth Mohammad Salah Gajani  (Female),2.343083,-2.109386,Female,Balochistan,0,2,0,822
 175 - GBHS Shahan Palal-II (F),27.97342,67.72997,Female,Balochistan,0,2,0,838
 174 - GBHS Shahan Palal-I ( M),27.97346,67.73056,Male,Balochistan,2,0,1041,0
 179 - Irrigation Banglow Baghtel (F),27.97961,67.7411,Female,Balochistan,0,2,0,582
 173 - CD Baghtail ( Kariya Feri) ( F ),27.97961,67.74165,Female,Balochistan,0,2,0,741
 172 - GBMS Baghtel ( Kariya feri) (M),27.97984,67.74166,Male,Balochistan,2,0,965,0
 178 - GBPS Bghtel ( M),27.98009,67.74178,Male,Balochistan,2,0,656,0
 167 - GBPS Ghulam Muhammad Jamali ( M),27.9923,67.86821,Male,Balochistan,2,0,982,0
 168 - GBPS Ghulam Muhammad Jamali (F),27.99237,67.86837,Female,Balochistan,0,2,0,859
 176 - GBPS Janan Jamali ( Com),27.99781,67.83556,Combined,Balochistan,1,1,615,503
 166 - GBMS Faizal Faqeer ( Com),28.00571,67.88073,Combined,Balochistan,1,1,584,451
 164 - GGHS Gandakha (F),28.0074,67.84798,Female,Balochistan,0,3,0,1357
 163 - GBPS Gandakha (M),28.01118,67.84696,Male,Balochistan,3,0,1649,0
 180 - GBPS New Kot Marri ( Com),28.01609,67.71905,Combined,Balochistan,1,1,554,462
 170 - GBMS Chowki Jamali ( M),28.02054,67.92197,Male,Balochistan,2,0,1083,0
 171 - GGMS Chowki Jamali (F),28.02157,67.9197,Female,Balochistan,0,2,0,891
 177 - GBPS Sukhiya Jamali (Com),28.02749,67.77736,Combined,Balochistan,1,1,541,432
 165 - GBPS Jabal Pur ( Com),28.03359,67.83128,Combined,Balochistan,2,1,826,554
 146 - GBPS Peer Bakhsh Jamali ( Com),28.04614,67.91782,Combined,Balochistan,1,1,570,463
 183 - GBMS Noshki Jadeed-II ( F),28.04861,67.74059,Female,Balochistan,0,2,0,949
 182 - GBHS Noshki Jadeed-I (M),28.04897,67.7406,Male,Balochistan,3,0,1101,0
 181 - GBPS Kandrri ( Goth Abdul Rehman) (Com),28.05235,67.71935,Combined,Balochistan,1,2,703,778
 162 - GBPS Rasool Abad ( Com),28.057,67.78134,Combined,Balochistan,1,1,302,241
 161 - GBPS Pandrani Jadeed (Com),28.06172,67.75081,Combined,Balochistan,2,2,912,862
 169 - GBMS Fazal Muhammad Jamali ( Com),28.0639,67.84862,Combined,Balochistan,1,1,617,441
 158 - Agriculture Form Sibi Jadeed (M),28.06731,67.7977,Male,Balochistan,2,0,774,0
 144 - GBPS Aitabar Khan Jamali (Com),28.06832,67.89004,Combined,Balochistan,1,1,568,471
 159 - CD Sibi Jadeed ( F),28.06885,67.79628,Female,Balochistan,0,2,0,944
 148 - GBPS Bangul Darro (Com),28.07859,67.96686,Combined,Balochistan,1,1,382,284
 147 - GBPS Goth Wali Muhammad Jamali (Deh Jhaloo) (Com),28.08386,67.931,Combined,Balochistan,1,1,411,345
 186 - GBPS Bagh Head (M),28.08443,67.74141,Male,Balochistan,2,0,957,0
 187 - BHU Bagh Head (F),28.0846,67.74012,Female,Balochistan,0,2,0,741
 145 - GBPS Haji Manzoor Bakhshlani (Com),28.09093,67.89399,Combined,Balochistan,1,1,568,371
 149 - GBPS Mehrab Pur (Com),28.10726,68.02694,Combined,Balochistan,1,1,297,212
 143 - CD Mewa Khan Khosa ( Com),28.11063,67.85732,Combined,Balochistan,1,1,644,623
 160 - GBPS Ali Sher Bugti (Com),28.11214,67.77686,Combined,Balochistan,1,1,583,504
 150 - Irrigation Banglow Hadeera Pul (Com),28.12996,67.90591,Combined,Balochistan,2,1,713,587
 156 - GBHS Ahmed Abad (M),28.13406,67.82484,Male,Balochistan,2,0,982,0
 157 - GGPS Ahmed Abad (F),28.13473,67.8216,Female,Balochistan,0,2,0,664
 151 - GBPS Allah Waraya Jamali (Com),28.13593,67.9758,Combined,Balochistan,2,1,1013,811
 141 - GBHS Jaffarabad ( High Section) (F),28.15484,67.87547,Female,Balochistan,0,2,0,828
 140 - GBHS Jaffarabad ( Middle Section) (M),28.15489,67.87538,Male,Balochistan,3,0,1151,0
 155 - GBPS Goth Faiq Ali Jamali ( Sakh Wah) ( Com),28.1557,68.04358,Combined,Balochistan,1,1,583,614
 139 - GBPS Jaffarabad (Com),28.15611,67.88339,Combined,Balochistan,1,1,532,474
 184 - GBPS Goth Muhammad Hassan Pandrani (Berron) (M),28.16402,67.7231,Male,Balochistan,2,0,820,0
 136 - GBMS Allah Dina Rind (Com),28.16449,67.9592,Combined,Balochistan,2,2,972,763
 154 - GBPS Naseer Ahmed Hejwani (M),28.16596,68.02171,Male,Balochistan,3,0,1489,0
 101 - GBPS Abdull Aziz Mengal Usta Mohammad  (M),28.1666,68.04129,Male,Balochistan,3,0,1586,0
 102 - GGPS Abdul Aziz Mengal Usta Mohammad (F),28.16689,68.04144,Female,Balochistan,0,3,0,1342
 185 - GBPS Asif Abad ( F),28.16849,67.74734,Female,Balochistan,0,2,0,832
 91 - GBMS Bhagia Khan (Firdous Colony) (M),28.16953,68.0526,Male,Balochistan,3,0,1442,0
 94 - GBPS Qurban colony (M),28.17048,68.04724,Male,Balochistan,3,0,1275,0
 153 - GBPS Dad Muhammad Hejwani (F),28.17139,68.01688,Female,Balochistan,0,3,0,1348
 110 - GBPS Yaqoob Mahllah (Portion-I) (M),28.17201,68.03893,Male,Balochistan,2,0,1109,0
 111 - GBPS Yaqoob Mohallah (Portion-II) (F),28.17201,68.03896,Female,Balochistan,0,2,0,858
 95 - GGPS Community Noor Mohammad (F),28.17224,68.04768,Female,Balochistan,0,3,0,1147
 92 - GGMS Bhagia Khan (Firdous Colony) (F),28.17325,68.05133,Female,Balochistan,0,3,0,1422
 138 - GBPS Faqirabad (Com),28.17379,67.90287,Combined,Balochistan,1,1,538,401
 108 - Sui Sudran Gas Office (Room No.1-2) (M),28.17379,68.04085,Male,Balochistan,3,0,1490,0
 109 - Sui Southerin Gas Office (Room No.3-4) (F),28.17379,68.04088,Female,Balochistan,0,3,0,1199
 129 - GBMS Ali Abad Jamali (Com),28.17412,68.00182,Combined,Balochistan,2,1,757,630
 106 - Civil Hospital Usta Mohammad (F),28.1743,68.04189,Female,Balochistan,0,2,0,927
 107 - GBHS Haq Bahoo (Room 1-2) Usta Mohammad (Combind),28.17483,68.04088,Combined,Balochistan,2,2,795,742
 103 - Veternery Hospital Usta Mohammad (M),28.17505,68.04321,Male,Balochistan,3,0,1304,0
 152 - GBMS Miah Khan Pandrani Brohi (Com),28.17533,68.03826,Combined,Balochistan,2,1,780,650
 96 - Food Gudam Usta Mohamma Room N.2 (Com),28.17558,68.04706,Combined,Balochistan,2,2,818,661
 105 - GGPS Umrani Gali (F),28.17561,68.04366,Female,Balochistan,0,2,0,995
 98 - GGPS Goth Noor Pur (F),28.17632,68.02944,Female,Balochistan,0,1,0,1453
 100 - Hindu General Hall Usta Mohammad (F),28.17756,68.04454,Female,Balochistan,0,3,0,1070
 113 - GBPS Haq Bahoo Colony (F),28.17792,68.04135,Female,Balochistan,0,3,0,1397
 99 - Community Center Hindu Mohllah (M),28.17797,68.04614,Male,Balochistan,3,0,1202,0
 97 - GBPS Goth Noor Muhammad (M),28.17801,68.02659,Male,Balochistan,1,0,629,0
 126 - GGPS Manzoor Lashari (F),28.17931,68.06538,Female,Balochistan,0,2,0,881
 118 - GBHS Usta Muhammad (Primary Section) Room No 1-2 (Com),28.17936,68.04639,Combined,Balochistan,3,3,863,701
 119 - GBHS Usta Muhammad (Primary Section) Room No. 4.5 (Com),28.17936,68.04642,Combined,Balochistan,2,1,857,702
 104 - GBPS Usta Mohammad (M),28.17944,68.04621,Male,Balochistan,2,0,689,0
 112 - GBHS Usta Mohammad (Room No.3-4) (M),28.1804,68.04271,Male,Balochistan,3,0,1622,0
 114 - Citizen Club Collage Road Usta Mohammad (M),28.18048,68.04453,Male,Balochistan,3,0,1605,0
 115 - DDEO Office Usta Mohammad (F),28.18096,68.04512,Female,Balochistan,0,3,0,1424
 117 - Agriculture Office Usta Muhammad (F),28.18245,68.04626,Female,Balochistan,0,3,0,1429
 128 - GGHS Rustam Khan Jamali (F),28.18245,68.06673,Female,Balochistan,0,3,0,1144
 116 - Forest Office Agriculture Farm (M),28.18309,68.04288,Male,Balochistan,3,0,1522,0
 127 - GBHS Rustam Khan Jamali (M),28.18395,68.06973,Male,Balochistan,3,0,1291,0
 125 - GBPS Zeb Khan Jamali (M),28.18575,68.09106,Male,Balochistan,2,0,952,0
 124 - GBMS Gharibabad (Com),28.18929,68.10844,Combined,Balochistan,1,1,688,625
 137 - GBPS Piyara Khan Umrani (Com),28.20217,67.90685,Combined,Balochistan,2,1,760,627
 123 - GBPS Ali Gohar Jamali (Com),28.20252,68.13347,Combined,Balochistan,1,1,575,566
 142 - Irrigation Banglow No. 1 at Qaboola Pul (Com),28.20356,67.89017,Combined,Balochistan,1,1,679,490
 130 - GBPS Kot Noor Muhammad (COM),28.20566,68.03359,Combined,Balochistan,1,1,382,384
 131 - GBPS Shabir Ahmed Umrani (Com),28.20723,68.041,Combined,Balochistan,1,1,519,528
 135 - GGPS Faizabad (F),28.21111,67.96892,Female,Balochistan,0,3,0,1216
 134 - CD Faizabad Jamali (M),28.21192,67.97176,Male,Balochistan,3,0,1213,0
 132 - GBPS Goth Hussain Bakhsh Bugti ( Near Faizabad Pul) (M),28.21835,67.98563,Male,Balochistan,2,0,836,0
 122 - GBHS Khanpur (Room No.3-4) (Com),28.21894,68.11389,Combined,Balochistan,2,1,784,611
 120 - GBHS Khanpur (Room No 1-2) (M),28.21895,68.11404,Male,Balochistan,2,0,1026,0
 121 - GGMS Khanpur (F),28.22066,68.11483,Female,Balochistan,0,2,0,869
 133 - Irrigation Banglow (Near Faizabad Bridge) (F),28.22253,67.98566,Female,Balochistan,0,2,0,751
 41 - GBPS Lal Bakhsh Nawrra (Com),28.2283,68.04594,Combined,Balochistan,2,1,885,719
 42 - GBHS Cattle Farm (Com),28.24476,68.12472,Combined,Balochistan,2,1,893,714
 85 - GBPS Cattle Farm (M),28.24494,68.12424,Male,Balochistan,1,0,1067,0
 44 - GBPS Achar Khan (Com),28.24562,68.15041,Combined,Balochistan,2,1,781,598
 90 - GBPS Kajla Khan Jamali (Com),28.26672,68.04376,Combined,Balochistan,2,2,864,680
 43 - CD Zulifqarabad (Com),28.28249,68.08152,Combined,Balochistan,2,1,833,651
 87 - GBPS Roshan Khan Jamali (F),28.29061,68.13087,Female,Balochistan,0,2,0,779
 86 - GBPS Raheem Khan Jamali (Com),28.29108,68.15018,Combined,Balochistan,1,1,727,596
 45 - GBPS Ghulam Nabi Katohar (Com),28.29113,68.23814,Combined,Balochistan,1,1,725,521
 57 - GBPS Kashmir Kot (Com),28.29265,68.26707,Combined,Balochistan,1,1,790,592
 58 - BHU Taj Pur (F),28.29355,68.30303,Female,Balochistan,0,2,0,969
 55 - GBMS Taj Pur (M),28.29357,68.30297,Male,Balochistan,3,0,1234,0
 56 - GBPS Zarak Pur (Com),28.29391,68.33238,Combined,Balochistan,1,1,205,156
 46 - GBHS Hafeezabad (Com),28.29418,68.20446,Combined,Balochistan,1,1,792,517
 88 - GBMS Lutaf Ali Jamali (Com),28.29608,68.06926,Combined,Balochistan,2,1,945,670
 47 - CD Hafeezabad (Com),28.29712,68.20498,Combined,Balochistan,2,1,850,672
 89 - GBPS Ali Khan Jattak (Com),28.3065,68.11408,Combined,Balochistan,2,1,735,526
 73 - GBPS Lal Mohammad Jattak (Com),28.30687,68.13832,Combined,Balochistan,1,1,573,343
 71 - GBPS Ghulam Qadir Mengal (Com),28.31248,68.19309,Combined,Balochistan,2,1,981,635
 54 - GGPS Umer Kot Jamali (Com),28.31274,68.27141,Combined,Balochistan,2,2,613,721
 50 - GBHS Rojahn Jamali (Portion-1) (M),28.32021,68.25838,Male,Balochistan,2,0,892,0
 51 - GBHS Rojhan Jamali (Portion-2) (M),28.32021,68.25841,Male,Balochistan,3,0,915,0
 52 - GGHS Rojhan Jamali (Portion-1) (F),28.32261,68.26014,Female,Balochistan,0,2,0,865
 53 - GGHS Rojhan Jamali (Portion-II) (F),28.32261,68.26017,Female,Balochistan,0,3,0,867
 59 - GBPS Mamul (F),28.32319,68.36716,Female,Balochistan,0,3,0,1706
 79 - GBPS Shahan Khan Mundrani (Com),28.3413,68.1896,Combined,Balochistan,1,1,811,539
 49 - GBPS Adam Magsi (Com),28.34365,68.15535,Combined,Balochistan,1,1,829,628
 60 - GBPS Raza Mohammad Rahooja (M),28.34446,68.35115,Male,Balochistan,3,0,1284,0
 61 - GGPS Raza Mohammad Rahooja (M),28.34459,68.35139,Male,Balochistan,3,0,1337,0
 78 - GBMS Ehsan Pur (Com),28.34675,68.23511,Combined,Balochistan,1,1,402,380
 34 - GBPS Naseer Khan (New Building) (Com),28.34819,68.39201,Combined,Balochistan,2,1,563,492
 64 - GBPS Sultan Shah (Com),28.34993,68.27087,Combined,Balochistan,1,1,393,277
 62 - GBPS Faqir Ghulam Mohammad (M),28.35068,68.30612,Male,Balochistan,3,0,1136,0
 63 - GGPS Faqir Ghulam Mohammad (F),28.35069,68.30598,Female,Balochistan,0,2,0,862
 72 - GBPS Dur Mohammad Lashari (Com),28.35427,68.1387,Combined,Balochistan,2,1,930,653
 65 - GBPS Madad Pur Khosa (Com),28.357,68.29101,Combined,Balochistan,3,3,1147,1015
 27 - GBPS Khan Garh Jamali (M),28.36585,68.33492,Male,Balochistan,3,0,1453,0
 48 - GBPS Gahanwar Khan (Com),28.36585,68.33495,Combined,Balochistan,2,2,884,769
 28 - GGPS Khan Garh Jamali (M),28.36673,68.33738,Male,Balochistan,3,0,1282,0
 77 - GBPS Essa Khan Rind (Com),28.36738,68.20026,Combined,Balochistan,1,1,165,88
 24 - GBPS Shaheed Murad Colony (F),28.36817,68.3436,Female,Balochistan,0,3,0,1086
 25 - GGPS Shaheed Murad Colony (F),28.36835,68.34816,Female,Balochistan,0,2,0,1049
 2 - GBPS Ghulam Sarwar Katbar (F),28.36954,68.3616,Female,Balochistan,0,2,0,1349
 1 - GGPS Abdul Sattar Bhatti (M),28.36975,68.35936,Male,Balochistan,3,0,1583,0
 22 - GBMS Haji Hussain Bakhsh Gola (F),28.37127,68.35016,Female,Balochistan,0,3,0,1774
 5 - GBHS Sardar Sohbat Khan Gola-1 (M),28.37128,68.35327,Male,Balochistan,4,0,2001,0
 8 - GBHS Sardar Sohbat Khan Gola-II (F),28.37128,68.3533,Female,Balochistan,0,3,0,1682
 21 - Girls Inter College Dera Allah Yar (M),28.3714,68.34591,Male,Balochistan,3,0,1675,0
 4 - GBPS Bhatti Mohallah (F),28.37174,68.3587,Female,Balochistan,0,3,0,1561
 23 - GMBS Sher Dil Colony (M),28.37193,68.34392,Male,Balochistan,3,0,1357,0
 26 - GGMS Sher Dil Behrani Colony (F),28.37193,68.34397,Female,Balochistan,0,3,0,1144
 3 - GBHS Bhatti Mohallah (M),28.37278,68.3584,Male,Balochistan,3,0,1546,0
 10 - B&R Rest House (Com),28.37337,68.35046,Combined,Balochistan,1,1,336,461
 11 - GBPS Abdul Baqi Jarwar (M),28.37408,68.35706,Male,Balochistan,2,0,1307,0
 6 - Social Welfare Office Dera Allah Yar (Room 1-2) (M),28.37414,68.34924,Male,Balochistan,2,0,809,0
 7 - Social Walfare Office Dera Allah Yar (Conference Hall) (F),28.37414,68.34927,Female,Balochistan,0,2,0,762
 17 - Municipal Commitee Dera Allah Yar (F),28.37454,68.34997,Female,Balochistan,0,2,0,1566
 16 - District Resource Center at Officer Club Dera Allah Yar (M),28.37478,68.34901,Male,Balochistan,3,0,986,0
 9 - Live Stock Office Dera Allah Yar (Com),28.37484,68.35174,Combined,Balochistan,1,1,568,490
 20 - GGHS Dera Allah Yar (F),28.37493,68.34701,Female,Balochistan,0,3,0,1426
 18 - GBHS Dera Allah Yar (M),28.37552,68.34614,Male,Balochistan,2,0,1178,0
 19 - Boys Inter College Dera Allah Yar (M),28.37568,68.34521,Male,Balochistan,3,0,1415,0
 15 - GGMS Bagan Baba (F),28.37612,68.35452,Female,Balochistan,0,4,0,2637
 14 - GBMS Bagan Baba Colony (M),28.37626,68.35518,Male,Balochistan,3,0,1504,0
 76 - GBPS Haji Khan Khosa (Com),28.37733,68.24368,Combined,Balochistan,2,1,779,507
 191 - Government Boys Primary School  Abdul Rehman Khosa (Female),28.37894,68.34829,Female,Balochistan,0,2,0,991
 197 - Government Boys Primary School  Abdul Fateh (Combined),28.37894,68.34832,Combined,Balochistan,1,1,389,620
 260 - Government Boys Primary School  Abdul Rehman Katoher Sohbat Pur (Female),28.37894,68.34835,Female,Balochistan,0,2,0,842
 35 - PS Essa Khan Brohi (Com),28.38123,68.37629,Combined,Balochistan,2,2,660,447
 12 - GGPS Karam Shah (F),28.38141,68.35944,Female,Balochistan,0,2,0,1013
 13 - GBPS New Ghous Bakhsh Gola (M),28.38245,68.35849,Male,Balochistan,2,0,1208,0
 80 - GBMS Sobdar Khan Jamali (Com),28.3836,68.18847,Combined,Balochistan,1,1,680,509
 36 - GBPS Noor Khan Bugti (Com),28.38396,68.32263,Combined,Balochistan,2,1,935,676
 39 - GBPS Bilawal Khan Jamali (Com),28.38989,68.17583,Combined,Balochistan,1,1,614,452
 69 - GBPS MIr Hassan Khosa (M),28.39549,68.27536,Male,Balochistan,3,0,1227,0
 33 - GBPS Hazar Khan Chandia (Com),28.39837,68.37917,Combined,Balochistan,2,2,860,711
 37 - GBPS Mohammad Bakhsh Sianch (Com),28.40144,68.19071,Combined,Balochistan,1,1,457,333
 74 - GBHS Ismail Chalgri (M),28.40213,68.12324,Male,Balochistan,2,0,800,0
 75 - GGPS Ismail Chalgri (F),28.40298,68.12215,Female,Balochistan,0,2,0,616
 38 - GBPS Abdul Kareem Babar (Com),28.40414,68.18916,Combined,Balochistan,3,3,1104,843
 68 - GBPS Amir Bakhsh Khosa (F),28.40504,68.26588,Female,Balochistan,0,2,0,893
 32 - GBPS Dil Murad Umrani (Com),28.40899,68.38129,Combined,Balochistan,1,1,450,310
 31 - GBPS Mureed Khan Bugti (Com),28.4185,68.32105,Combined,Balochistan,2,1,861,550
 40 - GBPS Ghulam Hussain Rind (Com),28.41999,68.20872,Combined,Balochistan,1,1,375,232
 67 - GGPS Sher Mohammad Hijwani (F),28.4206,68.2828,Female,Balochistan,0,2,0,1071
 225 - Government Boys High School  Manjhi Pur (Combined),28.42679,68.67424,Combined,Balochistan,1,1,142,153
 223 - Government Boys High School  Panhwar (Male),28.4271,68.77832,Male,Balochistan,4,0,1242,0
 227 - Government Girls High School Manjhi Pur (Female),28.42847,68.67236,Female,Balochistan,0,3,0,1013
 66 - GBPS Imam Bakhsh Hijwani (M),28.42891,68.28551,Male,Balochistan,3,0,1259,0
 226 - Civil Dispensary Manjhi Pur  (Male),28.42904,68.66879,Male,Balochistan,4,0,1384,0
 224 - Government Girls Middle School  Panhwar (Female),28.42973,68.77823,Female,Balochistan,0,2,0,746
 188 - Government Boys Primary School  Amanullah Domki (Male),28.42999,68.37275,Male,Balochistan,2,0,1076,0
 189 - UC Building Amanullah  Domki (Female),28.43009,68.37453,Female,Balochistan,0,2,0,1033
 244 - Government Boys High School  Mehoo Pur Portion-II (Female),28.43047,68.57557,Female,Balochistan,0,3,0,1082
 243 - Government Boys High School  Mehoo Pur Portion-I (Male),28.4308,68.575,Male,Balochistan,4,0,1264,0
 205 - Government Boys Primary School  Malguzar (Combined),28.43133,68.4243,Combined,Balochistan,1,1,695,567
 70 - GBPS Arbab Khan Jakhrani (Com),28.43143,68.24478,Combined,Balochistan,2,1,1042,822
 30 - CD Ghulam Mustafa Lehri (F),28.43167,68.3343,Female,Balochistan,0,2,0,907
 217 - Government Boys High School  Rind Ali (Male),28.43291,68.88802,Male,Balochistan,4,0,1324,0
 249 - Government Boys Primary School  Sohrab Khan Khosa Portion-I(Male),28.43386,68.62054,Male,Balochistan,3,0,1032,0
 250 - Government Boys Primary School  Sohrab Khan Khosa Portion-II (Female),28.43386,68.62057,Female,Balochistan,0,3,0,974
 208 - Government Boys Primary School  Mohammad Hassan (Combined),28.43521,68.40051,Combined,Balochistan,1,1,691,666
 218 - Government Boys High School  Din Mohammad (Female),28.43592,68.85626,Female,Balochistan,0,2,0,843
 247 - Government Boys High School  Murad Ali (Male),28.43593,68.49918,Male,Balochistan,3,0,869,0
 221 - Civil Dispensary Ibrahim Gajani  (Female),28.43684,68.81417,Female,Balochistan,0,2,0,622
 222 - Government Boys High School  Ibrahim Gajani (Male),28.437,68.81553,Male,Balochistan,3,0,957,0
 29 - GBPS Ibrahim Lehri (M),28.43708,68.32435,Male,Balochistan,2,0,1123,0
 248 - Government Girls Middle School  Murad Ali (Female),28.43803,68.49857,Female,Balochistan,0,3,0,732
 288 - Government Grils Primary School  Goth Hamza Khan (Female),28.43946,68.68985,Female,Balochistan,0,2,0,729
 287 - Government Boys Primary School  Goth Hamza Khan (Male),28.43981,68.69044,Male,Balochistan,2,0,808,0
 212 - Civil Dispensary Malguzar    (Female),28.44397,69.14498,Female,Balochistan,0,1,0,242
 211 - Basic Health Unit Malguzar  (Female),28.44409,69.14507,Female,Balochistan,0,1,0,252
 210 - Government Boys High School Malguzar (Male),28.44434,69.14481,Male,Balochistan,2,0,841,0
 275 - Government Boys High School  Goth Mohammad Salah Gajani  (Male),28.44456,68.80212,Male,Balochistan,4,0,1315,0
 216 - Civil Dispensary Burra  Khan Bajkani (Female),28.44562,68.90179,Female,Balochistan,0,2,0,567
 215 - Government Boys Primary School  Burra Khan Bajkani (Male),28.44569,68.90172,Male,Balochistan,2,0,999,0
 228 - Government Boys Primary School  Dolat Khan (Combined),28.44852,68.65729,Combined,Balochistan,1,1,443,298
 209 - Government Boys Middle School  Saido Jakharani (Combined),28.45074,69.17506,Combined,Balochistan,1,1,324,164
 204 - Government Boys Primary School  Bhand (Female),28.45569,68.45832,Female,Balochistan,0,3,0,1141
 269 - Civil Dispensary Jumal Bugti (Female),28.4566,68.79176,Female,Balochistan,0,2,0,550
 201 - Government Boys Primary School  Bahadur Khan (Female),28.45695,68.44453,Female,Balochistan,0,3,0,1163
 202 - Government Girls  Primary School  Bahadur Khan (Female),28.45707,68.44437,Female,Balochistan,0,2,0,839
 268 - Government Boys High School  Jumal Bugti (Male),28.45725,68.79115,Male,Balochistan,3,0,982,0
 203 - Government Girls Primary School  Bhand  (Male),28.45766,68.46513,Male,Balochistan,2,0,687,0
 198 - Government Boys Primary School  Abdul Nabi Brohi (Male),28.45786,68.35601,Male,Balochistan,3,0,1037,0
 255 - Government Boys Primary School  Naseebullah (Combined),28.45821,68.59924,Combined,Balochistan,1,1,454,329
 207 - Government Girls Primary School  Haji Abdul Majeed Khosa (Female),28.45947,68.38469,Female,Balochistan,0,2,0,1064
 246 - Government Boys Primary School  Dambri (Combined),28.4602,68.51266,Combined,Balochistan,1,2,322,634
 213 - Government Boys Primary School  Arz Mohammad (Combined),28.46135,68.98021,Combined,Balochistan,1,1,382,143
 199 - Government Boys Primary School  Kareem Sumalani (Female),28.46279,68.35379,Female,Balochistan,0,2,0,832
 206 - Government Boys High School  Mohammad Bakhsh Noor Pur(Male),28.46416,68.39061,Male,Balochistan,3,0,1336,0
 214 - RD-238 China Camp  (Combined),28.46425,68.90572,Combined,Balochistan,2,1,481,270
 219 - Government Boys Middle School  Mohammad Amin Kanrani (Combined),28.46823,68.74305,Combined,Balochistan,2,1,624,473
 277 - Government Boys Primary School  Bashir Khan (Combined),28.46913,68.48615,Combined,Balochistan,1,1,469,606
 245 - Government Boys Primary School  Ghulam Mustafa (Combined),28.47589,68.54426,Combined,Balochistan,1,1,518,484
 200 - Government Boys Middle School  Baloo Pur (Male),28.47703,68.43232,Male,Balochistan,3,0,1112,0
 256 - Government Boys Primary School  Bostan (Combined),28.48098,68.60114,Combined,Balochistan,1,1,384,312
 264 - Government Girls Middle School DIrgi (Female),28.48156,68.49709,Female,Balochistan,0,3,0,943
 263 - Government Boys High School Dirgi  (Male),28.48245,68.49892,Male,Balochistan,3,0,810,0
 270 - Government Boys Primary School  Ghulam Jan Kanrani (Male),28.4845,68.72039,Male,Balochistan,2,0,525,0
 267 - Government Boys Primary School New AKhtiyar Khan (Female),28.48753,68.45804,Female,Balochistan,0,4,0,1433
 82 - GBPS Goth Ali Murad Brohi (Com),28.48771,68.3923,Combined,Balochistan,1,1,477,433
 271 - Government Boys High  School  Ghulam Muhammad Kanrani (Female),28.49372,68.74596,Female,Balochistan,0,2,0,407
 81 - GBPS Hafiz Abdul Ghafoor Umrani (Com),28.49383,68.38565,Combined,Balochistan,1,1,527,435
 273 - Government Boys Primary School  Wandh Lashari (Male),28.4943,68.68657,Male,Balochistan,2,0,430,0
 230 - Government Boys Primary School  Noor Mohammad (Nooran) (Combined),28.49611,68.62737,Combined,Balochistan,1,1,376,319
 274 - Government Girls Primary School  Sardar Khan Lashari (Female),28.49889,68.68867,Female,Balochistan,0,1,0,383
 220 - Government Boys Middle School  Kot Lashkar Khan (Combined),28.49934,68.69933,Combined,Balochistan,2,1,426,380
 254 - Government Girls Primary School  Khair Pur Gola (Female),28.50038,68.52464,Female,Balochistan,0,2,0,938
 284 - Government Boys Primary School  Jhaloo (Combined),28.50274,68.49387,Combined,Balochistan,1,1,614,717
 83 - GBMS Azeem Magsi (Com),28.50486,68.40145,Combined,Balochistan,1,1,610,681
 265 - Government Boys Primary School Noor Muhammad ((Male),28.50498,68.47125,Male,Balochistan,2,0,756,0
 253 - Government Boys Primary School  Sardar Shah (Male),28.50516,68.52746,Male,Balochistan,2,0,1154,0
 261 - Animal Husbandary Sohbat Pur (Male),28.51414,68.53983,Male,Balochistan,3,0,1264,0
 84 - GBPS Abdul Ghani Neechari (Com),28.51899,68.39086,Combined,Balochistan,1,1,327,331
 258 - BHU Sohbat Pur (Male),28.51909,68.54224,Male,Balochistan,3,0,931,0
 257 - Government Boys High School  Sohbat Pur (Male),28.51923,68.54343,Male,Balochistan,3,0,748,0
 229 - Government Boys Inter College Hair Din  (Combined),28.52066,68.66948,Combined,Balochistan,2,2,571,543
 259 - Government Girls High School  Sohbat Pur (Female),28.52127,68.54123,Female,Balochistan,0,2,0,651
 262 - Agriculture Office Sohbat Pur (Female),28.52188,68.54153,Female,Balochistan,0,3,0,1091
 232 - Government Boys Primary School  Mir Hassan Khosa (Combined),28.5259,68.61515,Combined,Balochistan,1,1,413,324
 196 - Government Boys Middle School  Zafar Ali (Male),28.53094,68.41983,Male,Balochistan,2,0,653,0
 195 - Government Boys Primary School  Jehan Ali (Female),28.53259,68.42136,Female,Balochistan,0,3,0,993
 252 - Government Boys Primary School  Abdul Abdul Satar Khosa (Male),28.5326,68.50663,Male,Balochistan,2,0,973,0
 266 - Government Boys Primary School  Abdul Sattar (Combined),28.5326,68.50666,Combined,Balochistan,1,1,335,469
 194 - Government Girls Middle School  Jiya Khan (Female),28.53653,68.40387,Female,Balochistan,0,3,0,944
 193 - Government Boys High School  Ghulam Rasool (Male),28.53792,68.40604,Male,Balochistan,3,0,846,0
 233 - Government Boys High School  Adam Pur (Male),28.54256,68.59189,Male,Balochistan,3,0,759,0
 234 - Civil Dispensary Adam Pur  (Female),28.54411,68.59103,Female,Balochistan,0,2,0,626
 190 - Government Boys Primary School  Qasim Khan Khosa (Male),28.54414,68.45048,Male,Balochistan,3,0,1201,0
 251 - Government Boys Primary School  Abdul Majeed Katohar (Female),28.54667,68.51806,Female,Balochistan,0,3,0,823
 231 - Government Boys Primary School  Noor Mohammad Jarwar (Combined),28.55441,68.60855,Combined,Balochistan,1,1,769,510
 192 - Government Boys Primary School   Ahmed Ali  (Female),28.56272,68.47355,Female,Balochistan,0,2,0,535
 239 - Government Boys Primary  Abdul Qadir Bhangar (Combined),28.56286,68.49908,Combined,Balochistan,1,1,539,478
 237 - Government Boys High School  Abdul Rashid Khosa (Male),28.56962,68.55905,Male,Balochistan,3,0,851,0
 238 - Civil Dispensary Abdul Rashid Khosa  (Female),28.56987,68.55971,Female,Balochistan,0,3,0,965
 236 - Government Boys Primary School  Darbhani (Combined),28.57607,68.57491,Combined,Balochistan,1,1,546,340
 240 - Basic Health Unit Jhanda Talab  (Male),28.58124,68.48208,Male,Balochistan,2,0,687,0
 241 - Government Boys High  School  Jhanda Talab (Female),28.58138,68.48164,Female,Balochistan,0,3,0,973
 235 - Government Boys Primary School  Dad Mohammad (Combined),28.58252,68.59458,Combined,Balochistan,1,1,523,404
 281 - Government Boys Primary School  Shamsuddin Khosa (Male),28.58256,68.45971,Male,Balochistan,3,0,1342,0
 282 - Government Boys Primary School  Mohammad Ibrahim (Female),28.58771,68.43761,Female,Balochistan,0,2,0,1342
 278 - Government Boys Primary School  Izhar Khan Khan Khosa (Male),28.5952,68.48962,Male,Balochistan,2,0,1038,0
 279 - Government Grils  Primary School  Izhar Khan Khan Khosa (Female),28.59671,68.49027,Female,Balochistan,0,2,0,936
 283 - Government Boys Primary School  Munawar Khan Khosa (Combined),28.60136,68.41959,Combined,Balochistan,1,1,289,386
 280 - Government Boys Primary School  Sikdandar Khan Khosa (Male),28.60442,68.4985,Male,Balochistan,1,0,439,0
 290 - Government Girls Primary School Sikandar Khan Khosa (Female),28.60451,68.49809,Female,Balochistan,0,2,0,423
 242 - Government Boys Primary School  Naseer Khan (Combined),28.60485,68.52247,Combined,Balochistan,1,1,345,223
 285 - Government Boys High School  Gharri Portion-I (Male),28.60575,68.45001,Male,Balochistan,2,0,502,0
 286 - Government Boys High School  Gharri Portion-II (Female),28.60589,68.4502,Female,Balochistan,0,1,0,429
 272 - Government Boys Primary School  Khalan (Male),28.62673,68.50925,Male,Balochistan,2,0,748,0
 289 - Government Girls Primary School  Khalan (Female),28.62695,68.50865,Female,Balochistan,0,2,0,559
