PollingStation,Lat,Lng,BoothType,Province,MaleBooths,FemaleBooths,MaleVoters,FemaleVoters
 232 - Government Middle School Kasbo,24.28768,70.7875,Combined,Sindh,3,2,745,584
 233 - Government Primary School Kasbo Male,24.28768,70.78753,Male,Sindh,4,0,1027,0
 234 - Governemt High School Kasbo Female,24.28768,70.78756,Female,Sindh,0,3,0,874
 206 - Government Primary School Pithapur,24.3567721,70.7556348,Combined,Sindh,2,2,518,402
 236 - Government High School Nagarparkar Male,24.3643608,70.7545527,Male,Sindh,3,0,713,0
 237 - Government Primary School Nagarparkar ( Male),24.3643608,70.7545827,Male,Sindh,4,0,119,593
 230 - Government Primary School Lakar Khudio Male,24.3643608,70.7546127,Male,Sindh,3,0,947,0
 231 - Government Dispensary Lakarkhadio Female,24.3643608,70.7546427,Female,Sindh,0,3,0,745
 235 - Government Girls Primary School Soorachand,24.3643608,70.7546727,Combined,Sindh,3,2,676,513
 238 - Government Primary School Nagarparkar ( Male),24.3643608,70.7547027,Male,Sindh,4,0,983,0
 239 - Government Girls High School Nagarparkar (Female),24.3643608,70.7547327,Female,Sindh,0,4,0,937
 221 - Government Primary School Arbab Inayat Form,24.3643608,70.7547627,Combined,Sindh,2,1,339,241
 187 - Government Primary School Mokhai Male,24.50278,70.64034,Male,Sindh,2,0,826,0
 188 - Government High School Mokhai Female,24.50278,70.64037,Female,Sindh,0,2,0,655
 184 - Government High School Virawah,24.52167,70.77319,Combined,Sindh,3,2,717,556
 281 - Government Primary School Janab Ali Shah,24.52569,70.67213,Combined,Sindh,3,2,763,535
 186 - Government Primary School Bhoodar,24.52569,70.67214,Combined,Sindh,2,1,356,281
 279 - Government Primary School Bhagisal,24.5257,70.67201,Combined,Sindh,2,2,446,361
 176 - Government Middle School Soondar Female,24.55066,70.58482,Female,Sindh,0,2,0,875
 228 - Government Primary School Sabusun,24.5720068,70.802715,Combined,Sindh,3,2,670,516
 229 - Government Dispensary Sindhan Jo Wandio,24.5720068,70.802745,Combined,Sindh,2,2,477,345
 198 - Government Primary School Kharsar,24.57285,70.80164,Combined,Sindh,2,1,494,318
 215 - Government Primary School Wadhrai,24.5897393,70.7259822,Combined,Sindh,3,2,647,536
 216 - Government Primary School Sadurus,24.5897393,70.7260122,Combined,Sindh,2,2,471,407
 217 - Government Primary School Mokrio (Improvised),24.5897393,70.7260422,Combined,Sindh,2,1,366,262
 222 - Government Primary School Kharak,24.5897393,70.7260722,Combined,Sindh,2,2,580,420
 223 - Government Primary School Kharoro Bishmani,24.5897393,70.7261022,Combined,Sindh,2,1,363,302
 224 - Government Primary School Onhar,24.5897393,70.7261322,Combined,Sindh,3,2,733,566
 225 - Government Primary School Adhigam Male,24.5897393,70.7261622,Male,Sindh,3,0,822,0
 226 - Government Middle School Aadhigam Female,24.5897393,70.7261922,Female,Sindh,0,3,0,702
 205 - Government Primary School Burtalla,24.5897393,70.7262222,Combined,Sindh,3,2,669,517
 240 - Government Girls Primary School Meghwar Paro Nagarparkar,24.5897393,70.7262522,Combined,Sindh,3,2,679,557
 241 - Government Primary Sschool Bhodesar (Male) Improvised,24.5897393,70.7262822,Male,Sindh,3,0,805,0
 218 - Government Primary School Mondhro Male Improved,24.5897393,70.7263122,Male,Sindh,3,0,783,0
 127 - Government Middle School Danbhario Ismail (Male),24.5897393,70.7263422,Male,Sindh,3,0,769,0
 220 - Government Primary School Malji Jo Wandio,24.5897393,70.7263722,Combined,Sindh,2,2,501,417
 190 - Government Primary School Dandhoro,24.61474,70.69664,Combined,Sindh,2,2,510,376
 204 - Government Primary School Aalani Ji Wandhio,24.6252679,70.9764877,Combined,Sindh,3,2,675,527
 214 - Government Primary School Churio,24.6252679,70.9765177,Combined,Sindh,3,2,682,519
 159 - Government Primary School Kubri,24.6252679,70.9765477,Combined,Sindh,1,1,320,265
 213 - Government Primary School Phulparo,24.6252679,70.9765777,Combined,Sindh,2,1,394,290
 202 - Government Primary School Ranpur,24.6252679,70.9766077,Combined,Sindh,2,2,609,497
 162 - Government Primary School Bhemaveri,24.6252679,70.9766377,Combined,Sindh,2,1,419,316
 163 - Government Primary School Kot Bando,24.6252679,70.9766677,Combined,Sindh,2,2,471,366
 157 - Government Primary School Chhachi,24.6252679,70.9766977,Combined,Sindh,2,2,507,395
 158 - Government Middle School Surho Gaju,24.6252679,70.9767277,Combined,Sindh,2,2,613,419
 147 - Government Middle School Kharoro Dal (Male),24.6252679,70.9767577,Male,Sindh,3,0,662,0
 166 - Government Primary School Sand Paro Panhario,24.65921,70.63079,Combined,Sindh,2,1,376,313
 201 - Government Dispensary Khari Veri Female,24.67302,70.88248,Female,Sindh,0,3,0,693
 195 - Government Primary School Samat,24.68159,70.80532,Combined,Sindh,1,1,351,221
 156 - Government Primary School  Harho Female,24.7343674,69.804315,Female,Sindh,0,3,0,715
 160 - Government Primary School Jhiglio Dal,24.7343674,69.804345,Combined,Sindh,2,2,443,424
 135 - Government Primary School Hemari,24.7343674,69.804375,Combined,Sindh,1,1,320,275
 136 - Government Primary School Balhiari,24.7343674,69.804405,Combined,Sindh,2,1,379,283
 131 - Government Primary School Hirar Detha Male,24.7343674,69.804435,Male,Sindh,3,0,877,0
 168 - Government Primary School Bhojabhoon Suleeman Otho,24.76434,70.59258,Combined,Sindh,2,2,501,392
 123 - Goverment Primary School Rojh,24.7822,70.66465,Combined,Sindh,2,1,369,305
 152 - Government Primary School Gongaveri,24.78773,70.85662,Combined,Sindh,2,1,359,303
 155 - Dispensary Harho Male,24.790541886215653,70.8528360699977,Male,Sindh,4,0,1016,0
 203 - Government Primary School Kuwara,24.813882017264707,70.88374018284425,Combined,Sindh,3,2,725,569
 146 - Government Primary School Kharoro Dal Female,24.83766,70.94895,Female,Sindh,0,2,0,617
 128 - Government Middle School Danbhario Ismail ( Female),24.84518,70.66862,Female,Sindh,0,2,0,600
 144 - Government Primary School Ohramar,24.86872,70.88046,Combined,Sindh,2,2,519,404
 145 - Government Middle School Bhoro Sand,24.86872,70.88049,Combined,Sindh,2,1,366,284
 141 - Government Girls  Primary School Resham Jo Tar,24.87126319691589,70.75081646222696,Combined,Sindh,2,2,561,458
 257 - Government Primary School Bhani Jo Tar Khameso Paro,24.8954,70.32242,Combined,Sindh,2,1,375,300
 280 - Government Middle School Boonhar,24.94588,70.42682,Combined,Sindh,2,1,348,320
 287 - Government Primary School Mokhe Jo Tar,24.94644,70.64057,Combined,Sindh,2,1,359,306
 288 - Government High School Wanko Bheel,24.94667,70.64024,Combined,Sindh,2,2,545,421
 124 - Government High School Mithrio Halepoto,24.9491675,70.6994302,Combined,Sindh,2,2,475,389
 140 - Government Primary School Satidera,24.9491675,70.6994602,Combined,Sindh,3,2,714,523
 122 - Government Middle School Tugusar Halipota,24.951545,70.634628,Combined,Sindh,3,2,647,526
 125 - Government Primary School Missri Shah,24.951545,70.634658,Combined,Sindh,2,2,483,381
 153 - Government Primary School Mithrio Juneja Main,24.951545,70.634688,Combined,Sindh,2,2,433,344
 154 - Government Primary School Jaghari,24.951545,70.634718,Combined,Sindh,2,2,564,478
 149 - Government Primary School Jakhra Colony,24.951545,70.634748,Combined,Sindh,1,1,423,355
 150 - Government Dispensary Beharao,24.951545,70.634778,Combined,Sindh,2,1,481,380
 161 - Government Primary School Goondi,24.96065752352789,70.75536197210523,Combined,Sindh,2,2,485,406
 277 - Government Middle School Rajoro ( Male),24.98831,70.49443,Male,Sindh,3,0,803,0
 278 - Government Middle School Rajoro (Female),24.98831,70.49446,Female,Sindh,0,3,0,649
 264 - Government Primary School Kankio,24.99146,70.57784,Combined,Sindh,2,2,545,413
 260 - Government Primary School Sadharo Nohri,24.998,70.64185,Combined,Sindh,2,2,434,344
 261 - Government Primary School Salu Bheel ( Male),24.998,70.64188,Male,Sindh,4,0,1068,0
 262 - Government Primary School Salu Bheel (Female ),24.99817,70.64185,Female,Sindh,0,3,0,837
 167 - Government Primary School Jalal Jhagoro,24.999012158294377,70.64327884472206,Combined,Sindh,1,1,309,251
 175 - Government Primary School Soondar Male,25.00066350039961,70.67469475393668,Male,Sindh,4,0,1030,0
 285 - Government Primary School Arab Khaskheli Paro Gul Mohammad Rind (Female),25.00115,70.67408,Female,Sindh,0,2,0,531
 258 - Government Primary School Adam,25.004250996184933,70.41408331047539,Combined,Sindh,2,1,464,379
 165 - Government Primary School Piloo,25.02652541727518,70.64115716667105,Combined,Sindh,2,2,401,340
 266 - Government Primary School Rawatsar,25.03978,70.76804,Combined,Sindh,2,1,341,303
 268 - Government High School Sakrio (Male),25.03978,70.76807,Male,Sindh,1,0,1040,0
 269 - Government High School Sakrio ( Female),25.03978,70.7681,Female,Sindh,0,1,0,871
 267 - Government Primary School Muhammad Ali Shah (S.Paro) (Improvised),25.03997,70.76808,Combined,Sindh,2,2,632,449
 259 - Government Primary School Kumbhe Ji Dhani,25.05302,70.69693,Combined,Sindh,2,2,518,393
 194 - Government Primary School Mamchero,25.05727614813326,70.44822740761003,Combined,Sindh,2,2,566,394
 273 - Government Primary School Rano Juneja Tardos (Female),25.06462,70.84035,Female,Sindh,0,2,0,630
 275 - Government Primary School Somarhar Sameja,25.06462,70.84038,Combined,Sindh,1,1,300,242
 274 - Goverment Primary School Dars Paro Tardos,25.06474,70.8403,Combined,Sindh,1,1,298,241
 189 - Government High School Danodhandal,25.067833832531853,70.74170589287125,Combined,Sindh,2,1,357,295
 245 - Government Middle School Saringhiar Meghwar Paro ( Male /Female),25.08735,70.5043,Combined,Sindh,2,2,469,371
 244 - Government Primary School Khamese To Tar Main,25.08736,70.50426,Combined,Sindh,2,1,392,329
 40 - GPS Karangri (Male),25.088999675001915,70.31062166830849,Male,Sindh,3,0,896,0
 41 - GPS Karangri Alam Paro (Female),25.088999675001915,70.3106516683085,Female,Sindh,0,3,0,734
 114 - GPS Muhammad Faten Samejo Charnore (Female),25.10563,70.65218,Female,Sindh,0,2,0,590
 120 - GPS Khan Muhammad Rind,25.10789,70.7224,Combined,Sindh,2,1,578,427
 117 - GPS Samoon Rind,25.10799,70.72236,Combined,Sindh,1,1,344,295
 284 - Government Primary School Gul Muhammad Rind Male,25.111965286533227,70.25644921135286,Male,Sindh,3,0,707,0
 102 - GPS Gaju Colony Chachro (Female),25.11376,70.26403,Female,Sindh,0,3,0,834
 101 - GPS Gaju Colony Chachhro (Male),25.11377,70.26412,Male,Sindh,4,0,1194,0
 182 - Basic Health Unit Virawah (Female),25.114781009216085,70.79296522800898,Female,Sindh,0,2,0,565
 263 - Govrenment Middle School Mubarak Rind,25.11557848856651,70.139087711505,Combined,Sindh,3,2,662,579
 250 - Government Primary School Mitha Tar (Male) Improvised,25.12026,70.51305,Male,Sindh,3,0,924,0
 248 - Government Primary School Bhanio Shahani,25.12028,70.51265,Combined,Sindh,1,1,297,206
 185 - Government Primary School Karitar,25.121657757133143,70.80223847196501,Combined,Sindh,2,2,488,374
 200 - Government Primary School Khari Veri Male,25.122993835001118,70.52369521318542,Male,Sindh,3,0,870,0
 276 - Government Girls Primary School Wawrai old,25.12307,70.87004,Combined,Sindh,2,1,365,318
 181 - Government Primary School Virawah Male,25.123686408169583,70.5951882576963,Male,Sindh,3,0,720,0
 118 - GHS Gajooabad,25.13096,70.65558,Combined,Sindh,1,1,308,277
 119 - GPS Shivo Charan,25.13101,70.65553,Combined,Sindh,2,2,386,333
 251 - Government Dispensary Sobhe Jo Tar,25.13162,70.4564,Combined,Sindh,1,1,267,224
 252 - Government Primary School Noori Jo Tar,25.1317,70.45643,Combined,Sindh,2,2,445,344
 116 - GPS Kesrar Shadman Samoon,25.1695,70.63815,Combined,Sindh,2,2,482,403
 113 - GPS Charnore H Latif Male,25.170104692531257,69.96079102698785,Male,Sindh,3,0,768,0
 179 - Government Primary School Dabhi Bheel,25.174919532146323,70.67122673392672,Combined,Sindh,1,1,212,166
 115 - GPS Karim Rind,25.17506,70.6713,Combined,Sindh,2,1,323,216
 68 - GMS Haji Anwar Paro Keetari (Male),25.19477,70.62118,Male,Sindh,4,0,1073,0
 56 - GPS Phulra Beh,25.196654286944906,70.62649263985435,Combined,Sindh,2,1,312,254
 69 - GPS Haji Anwar Paro Keetar Female,25.20119,70.62206,Female,Sindh,0,3,0,943
 55 - GPS Desrani,25.21816670941949,70.70687925556943,Combined,Sindh,2,2,391,304
 80 - GPS Rajo Khan Paro Tar Ahmed,25.21823,70.70687,Combined,Sindh,1,1,243,188
 91 - GPS Chatoon Ji Dhani,25.22402,70.48349,Combined,Sindh,2,1,362,294
 84 - GB Lower Secondary School Bhada Sandha,25.22694,70.24976,Combined,Sindh,2,1,449,306
 85 - GPS Tamachi Je Veri,25.22694,70.24979,Combined,Sindh,1,1,320,273
 49 - GPS Karoo Khan Soomro,25.226996974319068,70.62223786102763,Combined,Sindh,2,2,355,276
 48 - GPS Kharyoon Main,25.227089983456917,70.62221207367278,Combined,Sindh,1,1,269,237
 286 - Government High School Janjhi,25.23176423483935,70.24891443475092,Combined,Sindh,2,2,397,325
 39 - GPS Dahli,25.24465308092255,70.5513557961282,Combined,Sindh,2,2,433,310
 75 - GPS Qamanhar Palli (Female),25.2553,70.55849,Female,Sindh,0,2,0,751
 76 - GPS Qamanhar Palli (Male) Improvised,25.25535,70.55852,Male,Sindh,3,0,1019,0
 97 - GPS Seenhraj Paro Chapardin Shah,25.26928,70.42191,Combined,Sindh,3,2,752,589
 71 - BHU Khario Fazal (Male),25.2982,70.63524,Male,Sindh,4,0,1022,0
 77 - GPS Jetrar (Female),25.30139,70.68231,Female,Sindh,0,3,0,662
 54 - GPS Jan Muhammad Paro (Female),25.303279692833833,70.7111268020197,Female,Sindh,0,2,0,518
 78 - GPS Abdul  Karim Nohri Jetrar (Male),25.31467,70.68008,Male,Sindh,3,0,905,0
 30 - GPS Pabe Jo Par,25.32482,70.37994,Combined,Sindh,2,2,516,380
 62 - Govt: Dispencary Chapar Khosa (Female),25.3264,70.53685,Female,Sindh,0,3,0,703
 61 - GPS Chapar Khosa Male,25.32641,70.53686,Male,Sindh,3,0,841,0
 43 - GPS Gadhro Main Male,25.32770292934807,70.53807004755548,Male,Sindh,3,0,801,0
 28 - GPS A. Bachayo Samejo Rohar Charan (Female),25.35301,70.33533,Female,Sindh,0,3,0,739
 59 - GPS Khensar,25.36828,70.47821,Combined,Sindh,2,1,387,294
 58 - GPS Peerani Bajeer Khensar,25.38532,70.46573,Combined,Sindh,3,2,665,505
 63 - GPS Noorani ( Male\Female),25.40494,70.4498,Combined,Sindh,2,1,408,336
 25 - GPS Bhagal Rahimoon (Female),25.42212,70.38052,Female,Sindh,0,3,0,601
 45 - GPS Moosi-ji- Dhani,25.45019179722777,70.61780816361919,Combined,Sindh,2,2,540,393
 246 - Government High School Wawridora (Male),25.478828797857588,70.46948150885586,Male,Sindh,4,0,852,0
 247 - Government High School Wawridora (Female),25.478828797857588,70.4695115088559,Female,Sindh,0,4,0,699
 17 - GPS Bhojhro Faqeer Paro Female,25.49557,70.38423,Female,Sindh,0,3,0,846
 16 - GPS Bhojhro Main Male,25.49713,70.38905,Male,Sindh,4,0,1068,0
 93 - GPS Jessi Jo Tar,25.50649,70.62281,Combined,Sindh,2,1,467,326
 256 - Government Primary School Dharendharo,25.520865614616245,70.29735742064047,Combined,Sindh,2,2,612,448
 265 - Government Primary School Umer Uner,25.553757385156704,70.61726374008454,Combined,Sindh,2,2,493,451
 82 - GHS Khemi jo Par Main,25.56303,70.37405,Male,Sindh,4,0,1152,0
 83 - GHS Khemi Jo Par(Female),25.56303,70.37408,Female,Sindh,0,3,0,808
 51 - GMS Kalario,25.56593,70.47766,Combined,Sindh,2,2,628,509
 106 - GPS Sokhero Male,25.584083124162596,70.26606519445076,Male,Sindh,3,0,918,0
 13 - GPS Lakiryoun (Male),25.58582,70.30158,Male,Sindh,4,0,1008,0
 108 - GPS Kagia Main (Male),25.585896237354124,70.30152021464403,Male,Sindh,4,0,1147,0
 249 - Government Primary School Mitha Tar (Female),25.58735114373057,70.38408190249581,Female,Sindh,0,2,0,696
 14 - GPS Lakhniyon Rahimoon Female,25.58899,70.30494,Female,Sindh,0,3,0,814
 10 - GPS Hamthani,25.58991,70.34344,Combined,Sindh,2,2,494,428
 272 - Government Primary School Tardoss Male,25.600331230067237,70.59827153219238,Male,Sindh,3,0,790,0
 109 - GGPS Jugto Charan Kagia ( Female),25.602225975852694,70.4204341400515,Female,Sindh,0,4,0,1004
 8 - GPS Jhojari Jo Par,25.60224,70.42049,Combined,Sindh,1,1,298,239
 36 - GPS Jogi Vero,25.60878,70.5387,Combined,Sindh,2,2,455,363
 35 - GMS Eidani,25.62957,70.50522,Combined,Sindh,3,2,718,536
 86 - Govt: Dispensary Jali Jo Tar Male,25.646517894303365,70.31868509938441,Male,Sindh,3,0,731,0
 31 - GPS Gogasar Latif,25.66515,70.50437,Combined,Sindh,2,2,491,409
 87 - GPS Jali Jo Tar Rano Paro Female,25.67827315397112,70.3151805767151,Female,Sindh,0,2,0,541
 88 - Govt Dispencary Milkam,25.699519024906664,70.23193216753361,Combined,Sindh,2,1,370,277
