StationId,PollingStation,Lat,Lng,BoothType,Province,MaleBooths,FemaleBooths,MaleVoters,FemaleVoters
44,Govt. Boys High School Sanjar Pur Nao (Male)  (P)*,28.24721014844251,69.97915692700336,Male,Punjab,4,0,1835,0
46,Govt. Boys High School- Sanjar Pur Nao (Male)  (P)*,28.24721014844251,69.9791869270034,Male,Punjab,2,0,1317,0
48,Govt. Boys High School- Sanjar Pur Nao,28.24721014844251,69.9792169270034,Combined,Punjab,2,1,770,576
52,Govt. Boys Primary School Basti Rais Mouza Baig Mahar (P)*,28.248192045270628,70.00692504750675,Combined,Punjab,2,1,849,620
45,Govt. Girls High School Sanjar Pur Nao (Female)  (P)*,28.2491546,69.9754107,Female,Punjab,0,2,0,1399
47,Govt. Girls High School Sanjar Pur Nao (Female)  (P)*,28.2491546,69.9754407,Female,Punjab,0,2,0,1035
49,Govt. Girls High School Sanjar Pur Nao,28.2491546,69.9754707,Combined,Punjab,2,1,835,661
42,Union Council Office Sanjar Pur Nao (Male)  (P)*,28.24991,69.97453,Male,Punjab,3,0,1435,0
43,Union Council Office- Sanjar Pur Nao (P-II) (Female)  (P)*,28.24991,69.97456,Female,Punjab,0,2,0,979
51,Govt.Model Primary School Muhammad Ali Arain (P)*,28.257561192614194,70.00676881657391,Combined,Punjab,2,1,791,573
50,Govt. Boys Primary School Chak No.  32/NP Gharbi Sadiqabad  (P)*,28.264507185449673,69.98569504156849,Combined,Punjab,1,1,477,374
56,Govt. Boys Primary School Chak 29/NP (P)*,28.26582,70.01967,Combined,Punjab,2,1,914,648
59,Govt. Boys High School- Basti Walana (Part-I) (P)*,28.271172431484928,70.01509076769688,Combined,Punjab,1,1,641,565
60,Govt. Boys High School- Basti Walana (Part-II) (P)*,28.271172431484928,70.0151207676969,Combined,Punjab,2,2,880,788
55,Govt. Boys Primary School- Chak No. 28/NP (P)*,28.280862248200666,70.03840257180818,Combined,Punjab,1,1,517,409
57,Govt. Boys Primary School- Chak No.  30/NP (P)*,28.301663027063473,70.0130153066738,Combined,Punjab,1,1,609,381
53,Govt. Boys Primary School No. 1- Wahid Bakhsh Mahar Sadiq Abad (Male),28.307268565603934,70.08790530461837,Male,Punjab,4,0,1839,0
54,Govt. Boys Primary School No. 1- Wahid Bakhsh Mahar Sadiq Abad (Female),28.307268565603934,70.0879353046184,Female,Punjab,0,3,0,1394
28,Govt.Girls Primary School Dera Ghulam Haider-Haider Colony (Male),28.30919,70.10994,Male,Punjab,2,0,1656,0
29,Govt.Girls Primary School Dera Ghulam Haider-Haider Colony (Female),28.30919,70.10997,Female,Punjab,0,2,0,1165
58,Govt. Boys Primary School- Basti Faqir Mahar Din Mouza Bhamba Shaheed (P)*,28.30999402750726,70.03103883822979,Combined,Punjab,1,1,592,323
26,Govt.Girls Primary School Mahboob Subhani Awami Colony (Male),28.311,70.10846,Male,Punjab,4,0,1817,0
27,Govt.Girls Primary School Mahboob Subhani Awami Colony (Female),28.311,70.10849,Female,Punjab,0,2,0,1291
24,Govt.Girls Primary School Dera Khalid Shahzad Habib Colony Chak No.10/NP (Male),28.31519,70.09383,Male,Punjab,4,0,1555,0
25,Govt.Girls Primary School Dera Khalid Shahzad Habib Colony Chak No.10/NP (Female),28.31519,70.09386,Female,Punjab,0,2,0,1124
18,Govt. Girls Primary School- Chak No.  31/NP (P)*,28.31543,69.99712,Combined,Punjab,1,1,449,309
8,Office of Union Council 7/G Town Commitee-Ahmed Pur Lamma (P)*,28.31709550654496,70.05932143086977,Combined,Punjab,1,1,596,496
3,Union Council Office Ahmed Pur Lamma  Deh-No.29 Sadiq Abad,28.317899772360178,70.05702074871394,Combined,Punjab,2,2,1134,839
9,Govt. Boys High School Ahmed Pur Lamma Sadiq Abad,28.318546116427914,70.0553501917691,Combined,Punjab,2,2,1125,699
4,Govt. Boys High School Ahmed Pur Lamma Sadiq Abad (High Portion) (Male),28.318565712109976,70.0553570935089,Male,Punjab,3,0,1595,0
6,Govt. Boys High School- Ahmed Pur Lamma (Middle Portion) (Male),28.318569757862047,70.05537381222169,Male,Punjab,4,0,1869,0
5,Govt. Girls High School Ahmed Pur Lamma Sadiq Abad (High Portion) (Female),28.319548769248232,70.05336458409434,Female,Punjab,0,2,0,1282
7,Govt. Girls High School Ahmed Pur Lamma Sadiq Abad (Middle Portion) (Female),28.319548769248232,70.0533945840943,Female,Punjab,0,3,0,1479
1,Govt. Boys Rafique Middle School- Ahmed Pur Lamma (Male),28.320021336071562,70.05148978679064,Male,Punjab,4,0,1652,0
2,Govt. Boys Rafique Middle School- Ahmed Pur Lamma (Female),28.320021336071562,70.0515197867906,Female,Punjab,0,3,0,1347
104,Govt. Elementary School Daouwala Sadiq Abad  (P)*,28.321614082127482,69.82244471119984,Combined,Punjab,2,2,835,705
105,Govt. Elementary School Daouwala Sadiq Abad  (P)*,28.321614082127482,69.8224747111998,Combined,Punjab,2,2,878,695
34,Govt. Boys Elementary School (Low Income Scheme)Sadiq Abad (P 1)*,28.321846426524395,70.12133238843579,Combined,Punjab,2,2,1073,882
35,Govt. Boys Elementary School  (P-II) (Low Income Scheme)Sadiq Abad (Male),28.321846426524395,70.1213623884358,Male,Punjab,2,0,1276,0
36,Govt. Boys Elementary School Low Income Scheme (Female),28.321846426524395,70.1213923884358,Female,Punjab,0,2,0,948
107,Govt. Girls Primary School Nawazabad Sadiq Abad  (Female),28.33681800977794,69.85557106034948,Female,Punjab,0,2,0,1119
106,Govt. Girls Primary School Nawazabad Sadiq Abad  (Male),28.33681800977794,69.8556010603495,Male,Punjab,3,0,1497,0
21,Govt. Girls Primary School- Rajiri (P)*,28.338021969370885,70.01393542615983,Combined,Punjab,2,1,981,578
31,Govt. Masjid Maktab School- Chak No. 9/NP,28.33834,70.12167,Combined,Punjab,2,1,1073,852
22,Govt. Boys Elementary School- Dinu Shah (Male),28.33922,69.9707,Male,Punjab,3,0,1512,0
23,Govt. Girls Primary School Dinu Shah (Female),28.33922,69.97073,Female,Punjab,0,2,0,913
10,Govt. Boys Elementary School Chak No. 25/NP Sadiq Abad,28.340972281941095,70.0629429262827,Combined,Punjab,2,2,1083,777
112,Govt. Primary School Noor Pur Aziz Farm Sadiq Abad  (Male),28.343856994927474,69.88588912751892,Male,Punjab,3,0,1358,0
113,Govt. Primary School Noor Pur Aziz Farm Sadiq Abad  (Female),28.343856994927474,69.8859191275189,Female,Punjab,0,2,0,966
93,Govt. Boys Primary School Allah Abad (P)*,28.34919,69.93332,Combined,Punjab,2,1,1188,458
30,Govt. Boys Elementary School Chak No. 26/NP Sadiq Abad  (P)*,28.349745953980875,70.10373184791365,Combined,Punjab,2,1,726,518
13,Govt. Boys Primary School Chak No. 23/NP (P)*,28.360741613063993,70.06749998724196,Combined,Punjab,1,1,468,305
32,Govt. Boys Primary School Chak No.11/NP Sadiq Abad  (P)*,28.36366076608376,70.10257733577856,Combined,Punjab,1,1,506,369
19,Govt. Girls Elementary School Mitha Dandam (Male),28.363741292044025,70.0177456107294,Male,Punjab,2,0,1417,0
20,Govt. Girls Elementary School Mitha Dandam (Female),28.363741292044025,70.0177756107294,Female,Punjab,0,2,0,961
33,Govt. Girls High School Chak No. 11/NP Sadiq Abad,28.36384,70.10368,Combined,Punjab,2,1,920,648
11,Govt. Boys Primary School Ali Mardan  Sadiq Abad (Male),28.366712353107236,70.04118666300911,Male,Punjab,3,0,1707,0
12,Govt. Boys Primary School Ali Murdan  Sadiq Abad (Female),28.366712353107236,70.0412166630091,Female,Punjab,0,2,0,1052
116,Govt. Boys Elementary School Noor Ahmed Abad Sadiq Abad (Male)  (P)*,28.369312399152655,69.85079276033403,Male,Punjab,3,0,1692,0
118,Govt. Boys Elementary School Noor Ahmed Abad Sadiq Abad,28.369312399152655,69.850822760334,Combined,Punjab,2,1,714,520
14,Govt. Boys E/S- Chak No. 24/NP Sadiq Abad  (Male),28.37273854118497,70.0921926503206,Male,Punjab,2,0,1224,0
15,Govt. Girls Primary School Chak No. 24/NP (Female),28.37273854118497,70.0922226503206,Female,Punjab,0,2,0,872
117,Govt. Girls Primary School Kalay Wali Sadiq Abad (Female)  (P)*,28.37291359508121,69.8351985741375,Female,Punjab,0,2,0,1247
16,Govt. Boys Primary School Basti Muhammad Nawaz Mouza Jam Wasa Sadiq Abad  (P)*,28.37831674609712,70.11843582204192,Combined,Punjab,2,1,937,609
100,Govt. Girls Primary School Kandi Goth (Wazir Ahmed Abad)  (P)*,28.38155,69.92056,Combined,Punjab,2,1,896,635
99,Govt. Girls Primary School Kandi Goth (Wazir Ahmed Abad)  (P)*,28.38155,69.92059,Combined,Punjab,2,1,798,483
88,Govt. Masjid Maktib School- Jam Gabol Basti Haji Rahmat Ullah Chak No. 19/NP (P)*,28.383924630493603,70.00172313571261,Combined,Punjab,1,1,613,378
94,Govt. Girls Primary School Bakil Pur Sadiq Abad (P)*,28.3854,69.89654,Combined,Punjab,2,1,926,643
121,Govt. Boys Primary School Pir Hussain Abad (Male)  (P)*,28.386617950670473,69.80185434130188,Male,Punjab,3,0,1578,0
122,Govt. Boys Primary School Pir Hussain Abad (Female)  (P)*,28.386617950670473,69.8018843413019,Female,Punjab,0,2,0,1182
17,Govt. Boys Primary School Chak No.22/NP Sadiq Abad  (P)*,28.386717942320058,70.02342177366846,Combined,Punjab,2,1,1090,598
85,Govt. Boys Primary School Haq Farm  (P)*,28.386885714209374,69.96604497280836,Combined,Punjab,2,1,1115,588
128,Govt. Boys Primary School Haq Farm Sadiq Abad  (P)*,28.38692009922119,69.96612691057365,Combined,Punjab,2,1,792,423
110,Govt. Model Primary School Goth Sheikhani Sadiq Abad (Sheikhani) (P)*,28.388768215198375,69.8748163742226,Combined,Punjab,2,1,956,547
111,Govt. Model Primary School Goth Sheikhani Sadiq Abad  (P)*,28.388768215198375,69.8748463742226,Combined,Punjab,2,1,795,420
40,Govt. Girls Primary School Mahinwal Wasa Sadiq Abad  (P)*,28.389037750763322,70.07206935498226,Combined,Punjab,2,1,1006,611
41,Govt. Boys Primary School Chak No. 21/NP Sadiq Abad (P)*,28.389891092472627,70.06268458060218,Combined,Punjab,2,2,1181,713
87,Govt. Boys Elementary School- Kacha Bhutta,28.39928364727065,70.01280311951203,Combined,Punjab,2,2,1256,879
124,Govt. Girls High School Rahim Abad (Female),28.40114,69.93558,Female,Punjab,0,2,0,1269
126,Govt. Girls High School Rahim Abad Sadiq Abad (Female)  (P)*,28.40114,69.93561,Female,Punjab,0,2,0,1002
39,Govt. Boys Primary School Kot Mehtab Sadiq Abad  (P)*,28.403524133965263,70.08338431802869,Combined,Punjab,2,1,1169,718
123,Govt. Boys High School Rahim Abad Sadiq Abad  (Male),28.406619814758407,69.94166888110833,Male,Punjab,3,0,1797,0
125,Govt. Boys High School Rahim Abad Sadiq Abad (Male)  (P)*,28.406619814758407,69.9416988811083,Male,Punjab,3,0,1451,0
84,Govt. Girls Primary School Jam Karam Mouza Shabbir Ahmed Abad (P)*,28.407750155129186,69.93539697211129,Combined,Punjab,1,1,660,523
119,Govt. Boys Elementary School Garhi Dhodhu Sadiq Abad  (P)*,28.409244942436576,69.8681897581138,Combined,Punjab,1,1,608,466
120,Govt. Boys Elementary School Garhi Dhodhu Sadiq Abad  (P)*,28.409244942436576,69.8682197581138,Combined,Punjab,2,1,942,635
108,Govt. Boys Primary School Garhi Khair Muhammad Jhak (Male),28.41486311840418,69.83648284185468,Male,Punjab,2,0,1076,0
109,Govt. Girls Primary School Garhi Khair Muhammad Jhak (Female),28.41493,69.83617,Female,Punjab,0,2,0,820
77,Govt. Girls Primary School- Basti Ghulam Muhammad Chak No. 17/NP (P)*,28.416036178335673,69.98715729813338,Combined,Punjab,1,1,582,319
127,Union Council Office Rahim Abad,28.42028,70.08131,Combined,Punjab,2,1,785,602
37,Govt. Boys High School Muhammad Nawaz Wasa Sadiq Abad (P-I) (P)*,28.420670426090496,70.07812510001831,Combined,Punjab,2,1,1010,684
38,Govt. Boys High School Muhammad Nawaz Wasa Sadiq Abad (P-II) (P)*,28.420670426090496,70.0781551000183,Combined,Punjab,2,2,976,697
90,Govt. Model Primary School Chak No. 20/NP (P)*,28.422259895901277,70.06706875634102,Combined,Punjab,1,1,606,392
89,Govt. Boys Primary School- Basti Drighra (P)*,28.42243115750934,70.04798753068619,Combined,Punjab,2,1,942,669
96,Govt. Girls High School Bhong (Female),28.42413758814677,69.91089202936293,Female,Punjab,0,2,0,915
98,Govt. Girls High School Bhong SDK (Female)  (P)*,28.42413758814677,69.9109220293629,Female,Punjab,0,2,0,1305
86,Govt. Girls Primary School Mouza Qadir Pur (P)*,28.424958273894518,69.97836542113474,Combined,Punjab,1,1,502,281
95,Govt. Boys High School Bhong Sadiq Abad  (Male),28.426245037286083,69.91175674853353,Male,Punjab,2,0,1197,0
97,Govt. Boys High School Bhong Sadiq Abad  (Male),28.426245037286083,69.9117867485335,Male,Punjab,3,0,1609,0
76,Govt. Boys High School- Miray Shah (P)*,28.427284816444935,69.99676641552811,Combined,Punjab,2,1,961,763
101,Govt. Boys High School Bakhsh Abad Sadiqabad (Male),28.42820850377686,69.86603284140794,Male,Punjab,3,0,1493,0
102,Govt. Boys High School Bakhsh Abad Sadiqabad (Female),28.42820850377686,69.8660628414079,Female,Punjab,0,2,0,1128
103,Govt. Boys High School Bakhsh Abad Sadiqabad,28.42820850377686,69.8660928414079,Combined,Punjab,1,1,396,349
92,Govt. Girls Elementary School Shehbaz Pur (P)*,28.43392406370937,70.03214214618993,Combined,Punjab,1,1,438,288
91,Govt. Boys Elementary School Shehbaz Pur  (P)*,28.4356780491679,70.02620728777782,Combined,Punjab,2,1,790,515
75,Govt. Boys Primary School Chak No. 18/NP (P)*,28.440969481153598,70.01014011007435,Combined,Punjab,1,1,296,154
82,Govt. Boys Primary School Ghulam Ahmed Abad Sadiq Abad  (Male),28.441815768194285,69.97383631408843,Male,Punjab,3,0,1590,0
83,Govt. Boys Primary School Ghulam Ahmed Abad Sadiq Abad  (Female),28.441815768194285,69.9738663140884,Female,Punjab,0,2,0,1130
78,Govt. Girls Primary School Piran  Bhutta  (P)*,28.44488,69.99165,Combined,Punjab,2,1,946,647
79,Govt. Boys Primary School Basti Wanga (P)*,28.446961894777232,70.0038823000372,Combined,Punjab,1,1,727,423
74,Govt. Girls Primary School- Basti Jhullan Mouza Miray Shah  (P)*,28.45466,70.02296,Combined,Punjab,1,1,630,517
69,Govt. Boys Primary School Chak No. 15/NP (P)*,28.45522648183994,70.05765958167645,Combined,Punjab,1,1,491,288
62,Govt. Girls Elementary School Bhutta Wahan- Sadiqabad (Female),28.46233,70.10764,Female,Punjab,0,2,0,973
64,Govt. Girls Elementary School Bhutta Wahan- Sadiqabad (Female),28.46233,70.10767,Female,Punjab,0,2,0,901
61,Govt. Boys High School Bhutta  Wahan Sadiq Abad (P-I) (Male),28.465124562393452,70.10184864620375,Male,Punjab,3,0,1449,0
63,Govt. Boys High School Bhutta  Wahan Sadiq Abad (P-II) (Male),28.465124562393452,70.1018786462037,Male,Punjab,2,0,1281,0
70,Govt. Model Primary School Azam pur Sadiq Abad  (P)*,28.471488768456133,70.02213394732688,Combined,Punjab,1,1,442,267
71,Govt. Model Primary School Azam pur Sadiq Abad  (P)*,28.471488768456133,70.0221639473269,Combined,Punjab,1,1,620,477
68,Govt. Boys Primary School- Basti Shahab Din- Garhi Bela (P)*,28.47165502139341,70.06821749890997,Combined,Punjab,1,1,645,379
65,Govt. Boys Primary School Mian Saadi Sultan,28.482908477924006,70.12454904726158,Combined,Punjab,2,2,1176,795
66,Govt. Boys P/S English Medium School- Wahi Ghulam Ali Mouza Rasool Pur (P)*,28.493921605648335,70.13480163823861,Combined,Punjab,2,1,813,635
80,Govt. Boys Primary School Muhammad Murad Dahar Sadiq Abad  (Male),28.49537700488167,69.98184926906436,Male,Punjab,2,0,1308,0
81,Govt. Boys Primary School Muhammad Murad Dahar Sadiq Abad  (Female),28.49537700488167,69.9818792690644,Female,Punjab,0,2,0,884
67,Govt. Boys Primary School Haji Fateh Muhammad Mouza Rasool Pur Sadiq Abad  (P)*,28.49752712857642,70.13328419059395,Combined,Punjab,1,1,649,498
73,Govt. Boys Elementary School- Basti Laaran- Sadiqabad  (Female),28.517997848547363,70.07120446123913,Female,Punjab,0,2,0,1041
72,Govt. Boys Elementary School- Basti Laaran- Sadiqabad  (Male),28.517997848547363,70.0712344612391,Male,Punjab,3,0,1371,0
