StationId,PollingStation,Lat,Lng,BoothType,Province,MaleBooths,FemaleBooths,MaleVoters,FemaleVoters
63,Govt. primary School Hazoor Singh Mouza Ghurmakh Singh    (Combined)    *P,29.638953444705,73.20290120063277,Combined,Punjab,2,1,1060,641
64,Govt. primary School Labh Singh       (Combined)    *P,29.65299143572682,73.23254077538098,Combined,Punjab,2,1,841,617
138,Govt. Girls Primary School Roda Singh    (Combined)    *P,29.65740731650649,73.23927396255901,Combined,Punjab,2,1,792,552
141,Govt. Girls Primary School Roda Singh    (Combined)    *P,29.65740731650649,73.239303962559,Combined,Punjab,1,1,501,361
65,Govt. Boys Primary School Ali Muhammad Chishti (Ahata Muhammad Khan)    (Combined)    *P,29.661752663251054,73.16672787765695,Combined,Punjab,2,2,1192,683
66,Office Union Council Khattan    (Combined)    *P,29.673321626160135,73.18015628194732,Combined,Punjab,1,1,467,317
67,Office Union Council Khattan    (Combined)    *P,29.673321626160135,73.1801862819473,Combined,Punjab,2,1,755,532
68,Govt. Girls Middle School Khattan       (Combined)    *P,29.675048817335767,73.18465009720931,Combined,Punjab,2,1,748,515
69,Govt. Boys High School Khattan    (Combined)    *P,29.678082740130254,73.1794777519356,Combined,Punjab,2,1,854,577
54,Govt. Boys Primary School Qazi Wala Gurbachan Singh     (Combined)    *P,29.69776364,73.12679057,Combined,Punjab,2,2,1121,721
139,Govt Boys Primary Scool Chak Aziz Din    (Combined)    *P,29.7006742705628,73.20274938071279,Combined,Punjab,2,1,791,510
140,Govt. Primary School Hari Ram pura    (Combined)    *P,29.702533370017854,73.22451826209615,Combined,Punjab,2,2,766,520
47,Govt. Boys primary School Hakim Ameer-U-Din     (Combined)    *P,29.7034233,73.0823917,Combined,Punjab,2,1,1007,605
56,Govt. Boys High School Khetranwala          (Combined)    *P,29.70595773080669,73.16642251721562,Combined,Punjab,1,1,565,419
57,Govt. Boys High School Khetranwala          (Combined)    *P,29.70595773080669,73.1664525172156,Combined,Punjab,2,1,780,582
58,Govt. Boys Primary School Fazal Hussainwala    (Combined)    *P,29.72949513,73.1625784,Combined,Punjab,1,1,543,411
59,Govt. Boys Primary School Fazal Hussainwala    (Combined)    *P,29.72949513,73.1626084,Combined,Punjab,1,1,608,405
53,Govt. Girls Community Model School Nathoo Dhakka     (Combined)    *P,29.732961033256846,73.12233988526698,Combined,Punjab,2,1,857,591
51,Govt.Boys Middle School Nathoo Dhakka        (Combined)    *P,29.733803803424195,73.12237468792816,Combined,Punjab,1,1,615,407
55,Govt. Boys Primary School Said Sar Akkanwali    (Combined)    *P,29.74219092,73.12497644,Combined,Punjab,2,2,1198,740
52,Govt. Boys Primary School Ramzan Shah        (Combined)    *P,29.74734916326718,73.09797307766327,Combined,Punjab,2,1,729,571
45,Govt. Boys Primary School Naseera Jhodheka    (Combined)    *P,29.75087874645894,73.0705972586908,Combined,Punjab,2,1,810,435
46,Govt. Girls Primary School Naseera Jhodheka    (Combined)    *P,29.75087874645894,73.0706272586908,Combined,Punjab,1,1,669,366
60,Govt. Girls primary School Basti Mogga       (Female)    *P,29.76224933300651,73.19265614512645,Female,Punjab,0,2,0,1059
61,Govt. Boys Primary School Basti Mogga   Mauza Kamal Mohammad ( Male)    (Male)    *P,29.762321791148363,73.1860709656146,Male,Punjab,3,0,1673,0
62,Govt. Girls Primary School Sher Muhammad Khan   (Akkanwali Khurd)     (Combined)    *P,29.76431828,73.14655698,Combined,Punjab,2,1,905,619
75,Govt. Boys Primary School (Tanzeem) Jahane Wala     (Combined)    *P,29.766410463701497,73.20383761546812,Combined,Punjab,2,1,825,530
72,Govt. Primary School Sundar Wali Kaisar Singh    (Combined)    *P,29.769672938677363,73.21847819197664,Combined,Punjab,2,2,1168,737
50,Govt. Girls High School Jand Wala       (Female)    *P,29.778096581894275,73.1041516545404,Female,Punjab,0,3,0,1602
80,Govt. Primary School Boys Chak NO. 18/G      (Combined)    *P,29.78084770891719,72.9045054371667,Combined,Punjab,1,1,518,450
81,Govt. Primary School Boys Chak NO. 18/G      (Combined)    *P,29.78084770891719,72.9045354371667,Combined,Punjab,1,1,711,516
48,Govt. Boys High School Jand Wala       (Male)    *P,29.785947108708317,73.10430983751404,Male,Punjab,2,0,1010,0
49,Govt. Boys High School Jand Wala       (Male)    *P,29.785947108708317,73.104339837514,Male,Punjab,2,0,1253,0
79,Govt. Primary School Boys Chak NO. 17/G          (Combined)    *P,29.786070057229082,72.88463859203162,Combined,Punjab,2,2,1052,865
39,Govt. Girls English Medium High School Mohib Ali     (Combined)    *P,29.78751777,73.18930343,Combined,Punjab,2,2,1000,652
73,Govt. Boys Middle School Sooraj Ganj      (Male)    *P,29.78982512,73.23372892,Male,Punjab,3,0,1298,0
74,Govt. Boys Middle School Sooraj Ganj      (Female)    *P,29.78982512,73.23375892,Female,Punjab,0,2,0,938
78,Govt. High School Boys Chak NO. 23/G          (Combined)    *P,29.791622733247845,72.93883730769528,Combined,Punjab,2,2,1065,828
36,Govt. Boys High School Kat Allah Yar Chashti    (Combined)    *P,29.79610777,73.17128521,Combined,Punjab,1,1,511,311
98,Govt. Primary School Model  24/G     (Combined)    *P,29.796696996439458,72.98463032447799,Combined,Punjab,2,1,686,557
76,Rural Health Centre Farid Kot Chak NO. 23/G       (Male)    *P,29.80209597990201,72.9320765235277,Male,Punjab,2,0,1229,0
77,Rural Health Centre Farid Kot Chak NO. 23/G       (Female)    *P,29.80209597990201,72.9321065235277,Female,Punjab,0,2,0,969
97,Govt. Boys Primary School Chak No.22/G     (Combined)    *P,29.803657739347493,72.93456768379143,Combined,Punjab,1,1,308,237
13,Govt. Primary School Dholi Wala     (Combined)    *P,29.804533066154402,73.08498981910647,Combined,Punjab,1,1,604,500
14,Govt. Primary School Dholi Wala     (Combined)    *P,29.804533066154402,73.0850198191065,Combined,Punjab,1,1,576,406
85,Govt-Girls Middle School 30/G     (Combined)    *P,29.807773905821094,73.0372780336562,Combined,Punjab,2,1,710,544
86,Govt-Girls Middle School 30/G     (Combined)    *P,29.807773905821094,73.0373080336562,Combined,Punjab,1,1,727,517
99,Govt. Girls Middle School 27/G     (Combined)    *P,29.81059628363659,72.98968705598391,Combined,Punjab,1,1,592,477
37,Basic Health Center PunjKosi    (Male)    *P,29.81182655,73.16145818,Male,Punjab,3,0,1374,0
38,Basic Health Center PunjKosi    (Female)    *P,29.81182655,73.16148818,Female,Punjab,0,2,0,773
83,Govt. High School Boys 28/G (Middle Portion)    (Female)    *P,29.81423145861091,73.008684233421,Female,Punjab,0,2,0,1117
84,Govt. High School Boys 28/G(High Portion)    (Male)    *P,29.814542835097516,73.0085388242868,Male,Punjab,3,0,1370,0
87,Govt.Primary School Model 26/G    (Combined)    *P,29.81497008657823,72.9567715617877,Combined,Punjab,2,1,751,508
108,Govt. Primary School Model  Chak NO. 11/G     (Female)    *P,29.822077130375472,72.91180628762987,Female,Punjab,0,4,0,1907
109,Govt. Primary School Boys Chak NO. 11/G      (Male)    *P,29.824153780966192,72.91194799256556,Male,Punjab,2,0,1189,0
110,Govt. Primary School Boys Chak NO. 11/G      (Male)    *P,29.824153780966192,72.9119779925656,Male,Punjab,2,0,1074,0
70,Govt. Primary School Mangla Nai     (Combined)    *P,29.826190457103188,73.19591382731907,Combined,Punjab,2,1,919,645
43,Govt. Girls Primary school Najeeb Abad      (Combined)    *P,29.829712590978637,73.16951059798517,Combined,Punjab,1,1,740,445
94,Union Council Office 7/G    (Combined)    *P,29.830007360958877,72.97598183119767,Combined,Punjab,1,1,286,273
93,Govt. High School Girls 6/G     (Combined)    *P,29.83071827522994,72.98126008680373,Combined,Punjab,2,2,1031,857
40,Govt.Boys High School Nathey Wala       (Combined)    *P,29.831440029624844,73.11897858599019,Combined,Punjab,1,1,638,340
41,Govt.Boys High School Nathey Wala       (Combined)    *P,29.831440029624844,73.1190085859902,Combined,Punjab,1,1,646,395
137,Govt. Primary School Boys Kora Bhotna    (Combined)    *P,29.83344,72.78038,Combined,Punjab,2,2,955,709
71,Govt. Boys Middle School Kishen Gharh        (Combined)    *P,29.83599524,73.2307999,Combined,Punjab,1,1,649,446
96,Govt. High School Boys 9/G     (Combined)    *P,29.836190806251942,72.94901387617264,Combined,Punjab,1,1,628,552
92,Govt. Girls Primmary School 5/G    (Combined)    *P,29.83797,73.00093,Combined,Punjab,1,1,502,415
104,Govt. Primary School Boys Chak NO. 2/FW     (Male)    *P,29.838162301573277,72.89035648212922,Male,Punjab,3,0,1460,0
105,Govt. Primary School Boys Chak NO. 2/FW     (Female)    *P,29.838162301573277,72.8903864821292,Female,Punjab,0,2,0,1101
106,Govt. Primary School Boys Chak NO. 3/FW manzoor wala      (Male)    *P,29.838162301573277,72.8904164821292,Male,Punjab,3,0,1661,0
15,Govt. Boys Primary School Nehalka       (Combined)    *P,29.841319686072804,73.05778082387626,Combined,Punjab,2,2,1094,791
42,Govt. Boys Primary School Gajjiana     (Combined)    *P,29.842798878657053,73.16070866954902,Combined,Punjab,1,1,619,475
7,Govt.Boys High School Noor Sir    (Female)    *P,29.84290561964358,73.09492875341978,Female,Punjab,0,4,0,1769
5,Govt. Girls High school Noor sir     (Male)    *P,29.84290561964358,73.0949587534198,Male,Punjab,2,0,1212,0
107,Govt. Community Center Chak NO. 3/FW Rehaman Wala     (Female)    *P,29.844256384346448,72.88082809258327,Female,Punjab,0,2,0,1228
82,Govt. Girls Primary School Model Chak NO. 4/G    (Combined)    *P,29.845010784129535,73.0263570419603,Combined,Punjab,2,1,742,601
95,Govt. Model  Primary School 8/G       (Combined)    *P,29.851754448099573,72.954977038607,Combined,Punjab,2,2,1014,758
100,Govt. Boys Primary School- Darbar Mari Showq Shah      (Male)    *P,29.85389758681122,72.90556685000227,Male,Punjab,3,0,1256,0
101,Govt. Boys Primary School- Darbar Mari Showq Shah      (Female)    *P,29.85389758681122,72.9055968500023,Female,Punjab,0,2,0,1002
31,Govt. Girls community Model School Maharwali     (Combined)    *P,29.854824962960716,73.20098697346305,Combined,Punjab,1,1,667,465
32,Govt. Girls community Model School Maharwali     (Combined)    *P,29.854824962960716,73.201016973463,Combined,Punjab,2,1,860,656
91,Govt. Elementray  School Girls 3/G    (Combined)    *P,29.85700633301575,73.01277008919472,Combined,Punjab,2,1,749,608
10,Govt. Boys Model Primary School Moraan wala (New Noor Sar)     (Combined)    *P,29.85842838904914,73.08091810972337,Combined,Punjab,2,2,990,779
30,Govt. Girls High School Mahar Wali Female    (Female)    *P,29.858482270861725,73.19496237391375,Female,Punjab,0,2,0,1117
90,Govt.Primary School Boys 2/G    (Combined)    *P,29.8589449925833,72.98292807468746,Combined,Punjab,1,1,565,442
29,Govt. Boys High School Mahar Wali      (Male)    *P,29.85916636847374,73.19791449017097,Male,Punjab,3,0,1583,0
44,Govt. Girls Primary School Basti Wali Kot(Murad Kharal)     (Combined)    *P,29.862768228144468,73.12495337773585,Combined,Punjab,2,1,883,650
120,Govt. Girls Primary School Mohar Shraif       (Female)    *P,29.86463022449433,72.83463626987587,Female,Punjab,0,2,0,1235
123,Govt. Girls Primary School Mohar Shraif       (Female)    *P,29.86463022449433,72.8346662698759,Female,Punjab,0,4,0,1734
125,Govt. Primary School Boys Mohar Shraif      (Female)    *P,29.865162018786283,72.83877635366716,Female,Punjab,0,2,0,1212
119,Govt. High School Boys Mohar Sharif (Primary Block)       (Male)    *P,29.86681138959194,72.8448335808478,Male,Punjab,4,0,1815,0
121,Govt. High School Boys Mohar Shraif  (High Portion)        (Male)    *P,29.866860940239032,72.84486075113817,Male,Punjab,3,0,1293,0
122,Govt. High School Boys Mohar Shraif  (High Portion)        (Male)    *P,29.866860940239032,72.8448907511382,Male,Punjab,2,0,1187,0
124,Falahi Markaz Behbood-e-Abadi Mahar Shareef   (Male)    *P,29.86785,72.8375,Male,Punjab,3,0,1656,0
102,Rural health Center Chak Dhudhyan Mari Showq Shah     (Female)    *P,29.872366765356723,72.93588286615183,Female,Punjab,0,2,0,848
103,Rural health Center Chak Dhudhyan Mari Showq Shah     (Male)    *P,29.872366765356723,72.9359128661518,Male,Punjab,2,0,1220,0
89,Govt. Middle  School Boys 1/G (Zaheer Abad)     (Combined)    *P,29.87296507393847,72.98096349996959,Combined,Punjab,2,2,1021,769
35,Govt. Boys Primary School Asad Khan (Bhadan wali)      (Combined)    *P,29.87305965948798,73.1387700674894,Combined,Punjab,2,1,1000,666
33,Govt.  Boys Primary School Mitha Akoka       (Male)    *P,29.87360123021351,73.17034434761324,Male,Punjab,3,0,1314,0
34,Govt. Girls Primary School Mitha Akoka     (Female)    *P,29.875675077818467,73.16487366747829,Female,Punjab,0,2,0,997
136,Govt. Primary School Boys Kumera    (Combined)    *P,29.88097313710396,72.77686433010945,Combined,Punjab,1,1,530,357
88,Govt.Primary School Boys 1/FW     (Combined)    *P,29.88361420249062,72.99221223355248,Combined,Punjab,1,1,277,199
11,Govt. Boys High  School Kat Ganga Singh           (Male)    *P,29.887069681416342,73.10187728911585,Male,Punjab,3,0,1332,0
12,Govt. Boys High  School Kat Ganga Singh           (Female)    *P,29.887069681416342,73.1019072891158,Female,Punjab,0,2,0,1023
28,Govt. Boys Middle School Orki Abdulla Shah    (Combined)    *P,29.892969224743172,73.19303773764166,Combined,Punjab,2,1,809,581
126,Govt. Primary School boys Shraif Deh    (Combined)    *P,29.893096595161197,72.87261263010326,Combined,Punjab,2,2,925,698
1,Govt. Higher Secondary School Boys Madrassa (Pat-I)       (Combined)    *P,29.896027650497288,73.0368107118434,Combined,Punjab,1,1,419,279
2,Govt. Higher Secondary School Boys Madrassa (Pat-II)      (Combined)    *P,29.896028262403355,73.03681048807954,Combined,Punjab,1,1,619,521
3,Govt. Higher Secondary School Boys Madrassa (Pat-II)      (Combined)    *P,29.896028262403355,73.0368404880795,Combined,Punjab,1,1,607,360
8,Office AEO Madrissa Nanik Chand    (Combined)    *P,29.896165085034124,73.03668110154624,Combined,Punjab,2,2,1131,840
9,Office AEO Madrissa Nanik Chand    (Combined)    *P,29.896165085034124,73.0367111015462,Combined,Punjab,2,1,744,520
4,Govt. Girls High School Madrassa       (Combined)    *P,29.897191036273487,73.03805866931663,Combined,Punjab,2,1,897,612
16,Govt. Boys School Basti Kapooran    (Combined)    *P,29.897309503946488,73.14429706744968,Combined,Punjab,2,1,810,586
129,Govt. Primary School Boys Main Abadi Jheduwan      (Combined)    *P,29.90131884046058,72.8098070180464,Combined,Punjab,2,1,879,608
133,Govt. Primary School Girls Hassam      (Combined)    *P,29.90358046785846,72.85392254875855,Combined,Punjab,2,1,808,502
134,Govt. Primary School Girls Hassam      (Combined)    *P,29.90358046785846,72.8539525487585,Combined,Punjab,1,1,477,324
128,Govt. Primary School Girls Nai Abadi Jheduwan     (Combined)    *P,29.905100526606844,72.80733096760265,Combined,Punjab,2,2,1041,651
24,Govt. Community Model Boys Primary School Manohar Garh  (Murkhai)    (Combined)    *P,29.90954729867445,73.17890342482538,Combined,Punjab,1,1,370,259
116,Govt. Boys Middle School Chopa      (Combined)    *P,29.911252605072303,72.92501075163666,Combined,Punjab,2,1,794,554
117,Govt. Boys Middle School Chopa      (Combined)    *P,29.911252605072303,72.9250407516367,Combined,Punjab,1,1,531,403
118,Govt. Girls Middle School Chopa     (Combined)    *P,29.911637514339397,72.9258024079418,Combined,Punjab,2,2,1108,739
131,Govt. boys Middle School Mehta Jhedu     (Combined)    *P,29.91324933415965,72.85677661857083,Combined,Punjab,1,1,563,351
132,Govt. boys Middle School Mehta Jhedu     (Combined)    *P,29.91324933415965,72.8568066185708,Combined,Punjab,1,1,737,514
111,Govt. Primary School Girls Taloka     (Combined)    *P,29.914257186607383,72.87718541110165,Combined,Punjab,2,2,1016,650
115,Govt. Primary School Girls Fatani     (Combined)    *P,29.914876056055416,72.89665263877627,Combined,Punjab,1,1,634,409
112,Govt. Primary School Boys Fatani     (Combined)    *P,29.91701900551132,72.89404469111912,Combined,Punjab,2,1,774,528
113,Govt. Primary School Boys Fatani     (Combined)    *P,29.91701900551132,72.8940746911191,Combined,Punjab,2,2,980,691
127,Govt. Primary School Boys  Bonga Jhedu Basti Munwar Shah / kaliay shah    (Combined)    *P,29.91739661032097,72.80824465378025,Combined,Punjab,2,2,1119,597
26,Govt. Boys Primary School Tahliwala Chak Ghulam Muhammad      (Combined)    *P,29.920289838472033,73.18087244704391,Combined,Punjab,1,1,665,496
27,Govt. Girls Primary School Kanwar Pura   (Jhalaran)       (Combined)    *P,29.920289838472033,73.1809024470439,Combined,Punjab,2,1,813,596
25,Govt. boys Primary School Kat Lal singh      (Combined)    *P,29.927724357824196,73.16833213870679,Combined,Punjab,1,1,490,332
17,Govt. Girls Middle School Dhani Mohammad Yar Chishti. Hafizabad      (Combined)    *P,29.936948438216664,73.12330003841545,Combined,Punjab,2,1,676,583
114,Govt. Primary School Boys Basti Ludhera Muza Fatani     (Combined)    *P,29.93833561913713,72.88432766899125,Combined,Punjab,1,1,387,234
19,Govt. Boys Primary School Gardhari Wala Gharbi    (Combined)    *P,29.970393521993504,73.17309744447154,Combined,Punjab,1,1,562,331
22,Boys Primary School Muhammad Nawazpura       (Female)    *P,29.973840092875573,73.21056825658187,Female,Punjab,0,2,0,860
23,Boys Primary School Muhammad Nawazpura       (Male)    *P,29.973840092875573,73.2105982565819,Male,Punjab,2,0,1130,0
135,Punjab Highway petrol post Sahuka Pattan        (Combined)    *P,29.979879138988352,72.82219775882915,Combined,Punjab,2,1,979,626
130,Govt. Primary School Boys Mazeed Shah     (Combined)    *P,29.983894861223007,72.8411297935348,Combined,Punjab,1,1,595,405
20,Govt. Girls Primary Shool Murli Garah       (Combined)    *P,29.99699,73.23764,Combined,Punjab,1,1,668,467
21,Govt. Girls Primary Shool Murli Garah       (Combined)    *P,29.99699,73.23767,Combined,Punjab,2,1,774,564
