StationId,PollingStation,Lat,Lng,BoothType,Province,MaleBooths,FemaleBooths,MaleVoters,FemaleVoters
81,Govt. Boys Primary School Chak No. 236/P (P)*,28.02720191860556,69.98943933694478,Combined,Punjab,2,1,924,601
63,Govt. Boys Elementary School Chak No. 264/P (P)*,28.055094511687507,70.00825862161443,Combined,Punjab,2,1,609,389
58,Govt. Boys Primary School Chak No. 216/P (Male),28.070099933841295,69.96111886045377,Male,Punjab,2,0,1281,0
57,Govt. Girls Primary School Chak No. 213/P Sadiq Abad  (P)*,28.07076391486141,69.97542282320849,Combined,Punjab,2,1,787,467
55,Govt. Boys Elementary School Chak No. 211/P (P)*,28.076031764598785,70.01768060896252,Combined,Punjab,2,1,788,546
67,Govt. Boys Primary School Basti Imtiaz  (Gunji) (P)*,28.08951245932517,69.93951551357387,Combined,Punjab,1,1,760,587
82,Govt. Boys Primary School Chak No. 261/P (P)*,28.08960061860451,70.16834833442817,Combined,Punjab,2,2,934,687
60,Govt. Girls Primary School Chak No.  212/P (Male),28.091766016185424,70.02283640937533,Male,Punjab,3,0,1422,0
62,Govt. Boys Primary School Chak No.  220/P (P)*,28.09267042853758,70.03711011011706,Combined,Punjab,1,1,570,487
56,Govt. Girls Elementary School Chak No. 205/P Sadiq Abad (P)*,28.093749471738,69.96478257675616,Combined,Punjab,1,1,559,472
83,Govt. Boys Primary School Chak No. 267/P,28.0941936874627,70.12903488759972,Combined,Punjab,2,2,1159,842
68,Govt. Girls Primary School Chak No. 206/P (P)*,28.103965431189263,69.93899106862892,Combined,Punjab,1,1,587,491
75,Govt. Primary School Chak No.  203/P (P)*,28.11127249008502,69.98562941156081,Combined,Punjab,2,1,631,452
86,Govt. Primary School Tillu Goth Sadiqabad (P)*,28.117625187298984,70.04693910866193,Combined,Punjab,1,1,378,290
54,Govt. Girls High School Chak No. 199/P (Female)  (P)*,28.119691264667832,70.01853433006539,Female,Punjab,0,2,0,990
53,Govt. Boys High School Chak No. 199/P Sadiq Abad (Male)  (P)*,28.121236916603028,70.01683129015953,Male,Punjab,3,0,1435,0
87,Govt. Boys Primary School Chak No. 210/P (P)*,28.12785294850653,70.0466146488156,Combined,Punjab,2,2,1012,784
74,Govt. Girls Primary School Chak No. 200/P,28.135310791691282,70.00406994534933,Combined,Punjab,2,2,948,650
88,Govt. Boys Primary School Chak No. 197/P (P)*,28.137882231489474,70.04042886176536,Combined,Punjab,2,1,873,575
85,Govt. Boys Elementary School Chak No. 208/P (P)*,28.139880992839032,70.07450176873716,Combined,Punjab,1,1,710,529
65,Union Council Office- Dhandi Sadiq Abad  (Male),28.14173635492637,69.91984304954045,Male,Punjab,2,0,1276,0
66,Union Council Office- Dhandi Sadiq Abad  (Female),28.14173635492637,69.9198730495404,Female,Punjab,0,2,0,866
49,Govt. Boys Primary School Shah Pur Sadiq Abad  (P)*,28.145588876800563,69.87574523989112,Combined,Punjab,2,1,680,410
78,Govt. Boys High School Chak No.  186/P (Male),28.15192,70.13056,Male,Punjab,3,0,1407,0
79,Govt. Boys High School Chak No.  186/P (Female),28.15192,70.13059,Female,Punjab,0,2,0,966
121,Govt. Boys Elementary School Chak No. 195/A-P (P)*,28.15342169611491,70.07136151076068,Combined,Punjab,2,2,1032,738
80,Govt. Primary School Chak No. 185/P,28.15883,70.15848,Combined,Punjab,2,2,1272,773
98,Govt.Girls Primary School Chak No. 194/P (Male),28.158933782990232,70.11356550450235,Male,Punjab,3,0,1463,0
99,Govt.Girls Primary School Chak No. 194/P (Female),28.158933782990232,70.1135955045023,Female,Punjab,0,2,0,966
89,Govt. Boys Primary School Chak No. 198/P (P)*,28.15951348909267,70.0258254253037,Combined,Punjab,2,1,986,644
71,Govt. Boys Elementary School Chak No. 164/NP Sadiq Abad  (P)*,28.159859508183303,69.95502041085985,Combined,Punjab,1,1,537,358
96,Govt. Girls Primary School Chak No. 191/P (P)*,28.17177155063505,70.12038187167106,Combined,Punjab,1,1,542,284
52,Govt. Girls Primary School Chak No.  181/NP (P)*,28.17394398377876,69.96138609164278,Combined,Punjab,1,1,376,331
120,Govt. Girls Elementary School Chak No. 193/P,28.175502084747272,70.10286065357431,Combined,Punjab,2,2,1092,808
84,Govt. Primary School Ghorillah (P)*,28.175569644770277,70.02877185098808,Combined,Punjab,2,2,938,705
73,Govt. Girls Primary School Chak No. 180/P (P)*,28.17557032085162,70.00886827587618,Combined,Punjab,1,1,550,312
37,Govt. Boys Primary School Makan Shah Sadiq Abad,28.18306405003913,69.88994539828887,Combined,Punjab,2,2,1191,799
69,Govt. Boys Primary School Basti Adhoja Goth Dargahi (Male),28.1832802973947,69.96937244417055,Male,Punjab,2,0,1137,0
70,Govt. Boys Primary School Basti Adhoja Goth Dargahi (Female),28.1832802973947,69.9694024441705,Female,Punjab,0,2,0,794
111,Govt. Girls High School Chak No. 160/P (Female),28.18451,70.17629,Female,Punjab,0,2,0,918
110,Govt. Boys Elementary School Chak No. 160/P (Male),28.18471139528379,70.17616069293639,Male,Punjab,2,0,1213,0
72,Govt. Boys Primary School Chak No. 162/NP Khalti Sadiq Abad  (P)*,28.18659742333902,69.89588502763736,Combined,Punjab,2,1,904,608
38,Govt. Girls Primary School Makan Shah  Sadiq Abad (Ahata Laghari) (P)*,28.187569580151308,69.89610255850067,Combined,Punjab,2,1,724,466
118,Govt. Primary School Wahi Pir Bakhsh (P)*,28.188805405250193,70.05656713170004,Combined,Punjab,2,1,904,640
119,Govt. High School Chak No. 173/P (P)*,28.19195340462345,70.07357635180146,Combined,Punjab,2,2,964,768
112,Govt. Elementary School Chak No. 163/P (Male),28.192679314618157,70.1416169445442,Male,Punjab,2,0,1342,0
113,Govt. Girls Primary School Chak No. 163/P (Female),28.19316,70.17316,Female,Punjab,0,2,0,1056
50,Govt. Boys High School Bindor Abbasian (P)*,28.19454533744679,70.01381189301019,Combined,Punjab,1,1,628,401
76,Govt. Boys Primary School Walhar Old (Male),28.203204232112313,69.98050260898326,Male,Punjab,3,0,1430,0
114,Govt. Primary School Chak No. 177/P (P)*,28.204428551665266,70.04222217759371,Combined,Punjab,2,1,924,550
30,Govt. Boys High School Kot Sabzal Sadiq Abad (P)*,28.21035178134854,69.89756557304821,Combined,Punjab,2,1,801,582
27,Govt. Boys High School Kot Sabzal Sadiq Abad  (P)*,28.21036579422423,69.89758228687013,Combined,Punjab,2,1,677,491
28,Govt. Boys High School Kot Sabzal Sadiq Abad (Male),28.21038115348509,69.89757211655879,Male,Punjab,3,0,1370,0
36,Govt. Primary School Pir Ahmed Abad (P)*,28.210524066265883,69.87832044786278,Combined,Punjab,2,1,877,624
31,Govt. Boys High School Kot Sabzal Sadiq Abad (Male),28.21054871057862,69.89724125884541,Male,Punjab,3,0,1752,0
64,Govt. Boys Elementary School Dhandi Sadiq Abad  (P)*,28.21979,69.90385,Combined,Punjab,2,2,994,685
95,Govt. Primary School Goth Jangoo,28.220970421563216,70.10083581646684,Combined,Punjab,2,2,1086,790
41,Union Council Office- Mohib Shah (Improvise),28.223119806206462,69.87697359877554,Combined,Punjab,2,2,1034,788
39,Govt. Boys Primary School Mohib Shah Sadiq Abad  (Male),28.223348963679307,69.87644692524071,Male,Punjab,3,0,1327,0
117,Govt. Elementary School Chak No.175/P,28.22913516485847,70.072830215526,Combined,Punjab,2,2,1116,764
25,Govt. Boys High School Goth Aloo Sadiq Abad  (P)*,28.233467553545903,69.93144017940367,Combined,Punjab,2,2,1030,667
115,Govt. Primary School Basti Ameer Bux Mouza Thair (P)*,28.234311198093152,70.05076215825115,Combined,Punjab,2,2,1016,774
47,Govt. Boys Primary School Gheemi (Male),28.23508728393753,69.94709180277964,Male,Punjab,2,0,1009,0
26,Govt. Boys Primary School Chak No. 42/NP Sadiq Abad  (P)*,28.23977435679777,69.91368689335913,Combined,Punjab,2,2,1095,719
46,Govt. Girls Primary School Sarwahi Sadiq Abad   (P)*,28.240051955600766,69.97156579092558,Combined,Punjab,2,1,1015,633
116,Govt. Primary School Tibbi Muhammad Pur (P)*,28.243736953017425,70.03013779847767,Combined,Punjab,2,2,865,662
18,Govt. Primary School Kumb- Sadiq Abad,28.243868327400072,69.86755926060775,Combined,Punjab,2,2,1015,796
101,Govt. Girls Primary School Muhammad Murad Machhi (Female)  (P)*,28.25187461222879,70.06384769701751,Female,Punjab,0,2,0,1134
100,Govt. Boys Primary School Muhammad Murad Machhi (Male)  (P)*,28.25362411762284,70.06281387086992,Male,Punjab,3,0,1547,0
44,Govt. Primary School Snajar Pur Kohna Sadiq Abad  (P)*,28.253730780764652,69.94639501221621,Combined,Punjab,2,1,703,557
3,Govt. Boys Primary School Chak No.  313/P Fateh Pur Sadiq Abad  (P)*,28.253913325823337,69.65815947189814,Combined,Punjab,2,1,889,580
19,Govt. Boys Primary School Ismail Chachar Sadiq Abad  (P)*,28.258389846986045,69.8537375913412,Combined,Punjab,2,2,967,763
17,Govt. Boys Muadib Primary School Chachran Sadiq Abad (Female)  (P)*,28.26910958866798,69.8513847308209,Female,Punjab,0,3,0,1338
16,Govt. Boys Moadib Primary School Chachran Sadiq Abad (Male)  (P)*,28.269179735382792,69.85143761809856,Male,Punjab,3,0,1696,0
33,Govt. Boys High School Kot Sanjar Khan Sadiq Abad  (P)*,28.27212060559623,69.88275447105539,Combined,Punjab,2,1,755,570
5,Govt. Boys Primary School Wanger Sadiq Abad  (P)*,28.274244182239123,69.72215228977784,Combined,Punjab,2,1,701,415
6,Govt. Boys Primary School Wanger Sadiq Abad  (P)*,28.274244182239123,69.7221822897778,Combined,Punjab,2,1,811,537
15,Govt. Boys Primary School Chak No.  38/NP Sadiq Abad  (P)*,28.275327779233557,69.7476697328657,Combined,Punjab,2,1,735,407
103,Govt. Boys Primary School Sona Goth FFC- Sadiqabad (P)*,28.27573352922176,70.06357188517967,Combined,Punjab,2,1,648,524
21,Govt. Girls Primary School Basti Sanghar- Sadiqabad (Female),28.27774,69.93063,Female,Punjab,0,3,0,1414
105,Govt. Boys Elementary School Basti Khahi- Sadiqabad (P)*,28.282684638384314,70.05679506971784,Combined,Punjab,2,1,709,488
108,Govt. Girls Primary School Saleh Muhammad Chowk FFC (Male)  (P)*,28.28685679949698,70.06429745204794,Male,Punjab,2,0,1057,0
109,Govt. Girls Primary School Saleh Muhammad Chowk FFC (Female)  (P)*,28.28685908437309,70.06430471137821,Female,Punjab,0,2,0,897
13,Govt. Boys Primary School Sweterki Sadiq Abad  (Male),28.287018352223555,69.68342421916964,Male,Punjab,3,0,1464,0
14,Govt. Boys Primary School Sweterki Sadiq Abad  (Female),28.287018352223555,69.6834542191696,Female,Punjab,0,2,0,922
107,Govt. Boys ELementary School Wahid Bakhsh Mahar No.  2 FFC Chowk- Sadiqabad (Female),28.287404432983784,70.0584157655364,Female,Punjab,0,2,0,1259
106,Govt. Boys ELementary School Wahid Bakhsh Mahar No.  2 FFC Chowk- Sadiqabad (Male),28.287404432983784,70.0584457655364,Male,Punjab,3,0,1599,0
104,Govt. Boys Primary School Wahid Bakhsh Laar Basti Laaran (P)*,28.28864210454264,70.08212515327406,Combined,Punjab,2,2,887,761
1,Govt. Boys Primary School Chak No.  312/P Sadiq Abad  (P)*,28.2967230619073,69.68035632824966,Combined,Punjab,1,1,238,145
43,Govt. Primary School Goth Mehmood Sadiq Abad  (P)*,28.297542666856124,69.82522753928936,Combined,Punjab,2,1,866,582
8,Govt. Boys High School Machhka Sadiq Abad (P)*,28.29759796057667,69.69710252949234,Combined,Punjab,2,1,973,633
42,Govt. Primary School Mubarak Bhara Sadiq Abad,28.298456105265366,69.85036691950258,Combined,Punjab,2,2,1349,858
9,Govt. Girls Primary School- Machhka,28.29993,69.69964,Combined,Punjab,2,1,986,652
22,Govt. Boys Primary School Bohiwar Sadiq Abad  (Male),28.300582544880022,69.97743910285601,Male,Punjab,3,0,1531,0
10,Govt. Boys Primary School Basti Muhammad Yousuf Machi Mouza Bhara  (P)*,28.3032526624512,69.74390672766894,Combined,Punjab,2,1,714,443
11,Govt. Boys Elementary School Basti Muhammad Yousuf Machi Mouza Bhara,28.304358915204475,69.74749929324491,Combined,Punjab,2,2,1086,683
24,Govt. Boys Primary School Chak Nasirabad Sadiq Abad (P)*,28.305016340309166,69.94789743657876,Combined,Punjab,2,2,1102,697
35,Govt. Primary School Kot Mithay Khan Sadiq Abad,28.30845466252442,69.88416365877023,Combined,Punjab,2,2,1212,868
90,Govt. Primary School Kot Pathan (Darra) Sadiqabad (P)*,28.323960728586474,69.91451456075123,Combined,Punjab,2,2,873,656
91,Govt. Primary School Chak No. 33-A/NP Kot Paracha Sadiq Abad  (P)*,28.331419826935203,69.94254534461206,Combined,Punjab,2,1,769,541
94,Govt. Iqra Girls Primary School Qasmani (P)*,28.34710525852433,69.95633919318725,Combined,Punjab,2,1,982,640
92,Govt. Boys Primary School Muhammad Bakhsh Chandia Basti Ghulam Sabir Arain,28.34716,69.95721,Combined,Punjab,2,1,745,492
4,Govt. Boys Primary School Mureed Abad Sadiq Abad  (P)*,28.351259571083403,69.61534960794134,Combined,Punjab,2,1,850,547
2,Mumtaz  Model Farm Chak Gul Muhammad  Sadiq Abad  (P)*,28.3560287839101,69.59022203666073,Combined,Punjab,2,1,892,455
12,Govt. Boys Primary School Sardar Pur Machka Sadiq Abad,28.37022792292523,69.57916126488163,Combined,Punjab,2,1,1102,626
