StationId,PollingStation,Lat,Lng,BoothType,Province,MaleBooths,FemaleBooths,MaleVoters,FemaleVoters
34,Government Boys Primary School Kot Shah Muhammad  (Combined),32.15858,73.99579,Combined,Punjab,1,1,569,475
77,Government Boys Elementary School Nat Kalan.  (Combined),32.30797,74.17315,Combined,Punjab,2,1,999,716
78,Government Boys Primary School Ibanwali.  (Combined),32.30989,74.19407,Combined,Punjab,2,1,1207,774
75,Government Girls High School Nat Kalan.  (Male),32.31167,74.16994,Male,Punjab,3,0,2128,0
76,Government Girls High School Nat Kalan.  (Female),32.31167,74.16997,Female,Punjab,0,3,0,1665
79,Government Girls Elementary School Kotli Sahian.  (Combined),32.32018,74.13599,Combined,Punjab,2,2,1022,865
65,Government Boys Primary School Fateh Garh.  (Combined),32.32126,74.15637,Combined,Punjab,1,1,740,535
69,Government Model Primary School  Chak Saan.  (Male),32.32595,74.21291,Male,Punjab,3,0,1747,0
71,Government Community Model Girls Primary School Chak Dadan.  (Combined),32.32879,74.18015,Combined,Punjab,1,1,793,613
49,Government Boys Primary School Chak Aroop Chand.  (Combined),32.3338,74.11467,Combined,Punjab,1,1,562,480
64,Government Boys Primary School Ojla Khurd.  (Combined),32.33543,74.158,Combined,Punjab,1,1,832,629
60,Government Model Primary School Ojla Kalan.  (Combined),32.33727,74.13794,Combined,Punjab,2,2,1296,1008
70,Government Model Elementary School Chourra.  (Female),32.33873,74.2194,Female,Punjab,0,2,0,1300
72,Government Girls Primary School Baghrian Nau.  (Combined),32.33949,74.18688,Combined,Punjab,1,1,632,495
68,Government Girls Primary School Saudan Wali  (Combined),32.3408,74.20799,Combined,Punjab,1,1,920,630
45,Government Model Primary School Kolar.  (Combined),32.34227,74.09535,Combined,Punjab,1,1,861,648
46,Government Girls Primary School Chak Mahi.  (Combined),32.34399,74.10782,Combined,Punjab,1,1,810,613
63,Government Girls High School Kot Inayat Khan.  (Combined),32.34502,74.1618,Combined,Punjab,1,1,927,748
48,Government Boys Primary School Sangowali.  (Combined),32.34816,74.11475,Combined,Punjab,1,1,829,632
61,Government Boys High School Kot Inayat Khan.  (Male),32.34896,74.16791,Male,Punjab,2,0,1218,0
62,Government Boys High School Kot Inayat Khan.  (Female),32.34896,74.16794,Female,Punjab,0,2,0,925
73,Government Center Boys Primary School Baghrian Kohna.  (Combined),32.35052,74.19918,Combined,Punjab,1,1,908,643
50,Government Boys Primary School Bhatti Mansoor.  (Combined),32.35064,74.14612,Combined,Punjab,1,1,741,593
47,Government Boys Elementary School Langianwala.  (Combined),32.35234,74.12104,Combined,Punjab,1,1,641,516
74,Government Girls Primary School Dodanwali Kalan.  (Combined),32.35652,74.18053,Combined,Punjab,2,2,1289,944
44,Government Model Primary School Rakh Bharoke.  (Combined),32.35685,74.07883,Combined,Punjab,1,1,866,701
66,Government Girls High School Jourra.  (Male),32.3571,74.21111,Male,Punjab,2,0,1592,0
67,Government Girls High School Jourra.  (Female),32.3571,74.21114,Female,Punjab,0,2,0,1148
59,Government Girls Primary School Kot Yousaf.  (Combined),32.36289,74.19994,Combined,Punjab,1,1,801,601
51,Government Girls High School Jandiala Dhaab Wala.  (Male),32.36334,74.13326,Male,Punjab,2,0,1646,0
52,Government Girls High School Jandiala Dhaab Wala.  (Female),32.36334,74.13329,Female,Punjab,0,2,0,1331
58,Government Model Primary School Chak Gillan.  (Combined),32.36736,74.22194,Combined,Punjab,1,1,804,639
56,Government Boys Primary School Dhapi Ameer Singh.  (Combined),32.37201,74.21706,Combined,Punjab,1,1,625,490
42,Government Boys High School Bharoke Cheema.  (Male),32.3751,74.0726,Male,Punjab,2,0,1458,0
43,Government Boys High School Bharoke Cheema.  (Female),32.3751,74.07263,Female,Punjab,0,2,0,1166
38,Government Model Primary School Budha Rajadha.  (Combined),32.37608,74.1202,Combined,Punjab,1,1,715,637
53,Government High School Chak Baig.  (Combined),32.37621,74.16013,Combined,Punjab,1,1,1089,880
41,Government Girls High School Bharoke Cheema.  (Combined),32.37634,74.07484,Combined,Punjab,2,2,1256,891
37,Government Boys Elementary School Kot Khizri.  (Female),32.37927,74.12384,Female,Punjab,0,2,0,1145
55,Government Girls Primary School Heranwala Khurd.  (Combined),32.38039,74.19408,Combined,Punjab,2,2,1158,859
39,Government Girls High School Manzoorabad.  (Combined),32.38151,74.09846,Combined,Punjab,1,1,915,681
40,Government Boys High School Manzoorabad.  (Combined),32.38211,74.09846,Combined,Punjab,2,2,1184,935
36,Government Boys Elementary School Kot Khizri.  (Male),32.38219,74.12785,Male,Punjab,2,0,1443,0
57,Government Boys Primary School Khosar.  (Combined),32.3826,74.18578,Combined,Punjab,1,1,696,475
54,Government Girls High School Dadwali.  (Combined),32.38331,74.13531,Combined,Punjab,2,2,1326,1020
85,Government Girls Elementary School Kot Jafar.  (Combined),32.38631,74.03662,Combined,Punjab,2,2,1058,815
84,Government Boys Primary School Kot Jafar.  (Combined),32.38671,74.03651,Combined,Punjab,2,2,1171,878
30,Government Girls Primary School Maroofabad.  (Combined),32.38711,74.16327,Combined,Punjab,1,1,791,572
158,Government Boys High School Dhonkal. (Male),32.39865,74.12514,Male,Punjab,3,0,1523,0
159,Government Boys High School Dhonkal. (Female),32.39865,74.12517,Female,Punjab,0,3,0,1252
25,Government Model Primary School Veroki.  (Male),32.403,74.1135,Male,Punjab,2,0,1279,0
26,Government Model Primary School Veroki.  (Female),32.403,74.11353,Female,Punjab,0,2,0,1026
154,Government Girls High School Dhonkal Part Middle. (Male),32.40425,74.1397,Male,Punjab,3,0,1384,0
155,Government Girls High School Dhonkal Part Middle. (Female),32.40425,74.13973,Female,Punjab,0,3,0,1226
156,Government Girls High School Dhonkal. (Male),32.40425,74.13976,Male,Punjab,2,0,1180,0
157,Government Girls High School Dhonkal. (Female),32.40425,74.13979,Female,Punjab,0,2,0,989
33,Government Boys Elementary School Aziz Chak. (Combined),32.40565,74.20514,Combined,Punjab,2,2,1306,1000
153,Govt.Model Primary School Dhonkal. (Combined),32.40617,74.13638,Combined,Punjab,2,2,1006,826
83,Government Boys Elementary School Phaloki  (Combined),32.40801,74.06448,Combined,Punjab,1,1,907,710
28,Government Boys Primary School Raddala.  (Combined),32.41052,74.17637,Combined,Punjab,2,2,1210,912
80,Government Primary School  Wadala Cheema (Combined),32.41055,74.06912,Combined,Punjab,2,2,1148,890
81,Government Girls High School Wadala Cheema  (Male),32.41078,74.07044,Male,Punjab,2,0,1345,0
82,Government Girls High School Wadala Cheema  (Female),32.41078,74.07047,Female,Punjab,0,2,0,1089
32,Government Girls Primary School Allushedave.  (Combined),32.41095,74.19016,Combined,Punjab,1,1,469,348
31,Government Boys Primary School Abul Fatehwali.  (Combined),32.41174,74.18488,Combined,Punjab,1,1,614,505
35,Government Boys Primary School Nehalo Chak. (Combined),32.41756,74.20177,Combined,Punjab,1,1,628,519
91,Virtual University- Wazirabad (Male),32.41943,74.11887,Male,Punjab,2,0,1639,0
27,Government Model Primary School Khasray  (Combined),32.41961,74.1017,Combined,Punjab,1,1,630,500
23,Government Model Primary School Dhonikey.  (Combined),32.42142,74.08941,Combined,Punjab,2,2,1197,949
24,Government Model Primary School Dhonikey- Moh. Sarak Pura  (Combined),32.422,74.08571,Combined,Punjab,2,2,1013,776
102,Government Girls Primary School- Qudratabad. (Female),32.42471,74.10405,Female,Punjab,0,4,0,1965
100,Government Boys Primary School- Thathi Araian (Male),32.42487,74.11251,Male,Punjab,2,0,1105,0
29,Government Model Primary School Pathanwali.  (Combined),32.42537,74.17778,Combined,Punjab,2,1,1074,849
101,Government Boys Primary School- Qudratabad (Male),32.42644,74.10308,Male,Punjab,2,0,1222,0
142,Government Girls College- GT Road- Wazirabad. (Combined),32.42663,74.11784,Combined,Punjab,2,2,1054,907
143,Government Girls College- GT Road- Wazirabad (Male),32.42663,74.11787,Male,Punjab,3,0,1753,0
144,Government Girls College- GT Road- Wazirabad (Female),32.42663,74.1179,Female,Punjab,0,3,0,1575
93,Al-Farabi Model High School Qudratabad-  Wazirabad . (Male),32.42688,74.10779,Male,Punjab,2,0,1325,0
98,Al-Farabi Model High School Qudratabad-  Wazirabad . (Male),32.42688,74.10782,Male,Punjab,2,0,1427,0
94,Dar-e-Arqam School Qudratabad- Wazirabad . (Female),32.42701,74.11507,Female,Punjab,0,2,0,1105
99,Dar-e-Arqam School Qudratabad- Wazirabad . (Female),32.42701,74.1151,Female,Punjab,0,2,0,1154
137,Government Boys High School Nizamabad- Wazirabad (Combined),32.42727,74.11781,Combined,Punjab,2,2,1190,901
138,Government Boys High School Nizamabad- Wazirabad (Male),32.42727,74.11784,Male,Punjab,2,0,1314,0
139,Government Boys High School Nizamabad- Wazirabad (Female),32.42727,74.11787,Female,Punjab,0,2,0,1181
95,Government Primary School-Eid Gah- Allahabad Wazirabad (Combined),32.43032,74.11182,Combined,Punjab,2,2,831,743
92,Government Girls High School Gali No.2 Allahabad Wazirabad (Female),32.43232,74.11376,Female,Punjab,0,2,0,1396
141,Government Girls High School Moh. Wahayiawala Nizamabad Wazirabad (Combined),32.43255,74.11846,Combined,Punjab,2,2,1363,1259
90,City Colleges Girls Campus Spal Colony Allahabad Wazirabad. (Combined),32.43287,74.11344,Combined,Punjab,1,1,692,582
2,Government Girls Primary School Thattha Faqeerullah. (Combined),32.43392,74.09459,Combined,Punjab,2,2,1128,889
96,Office of AFC food Bhroki Wazirabad (Male),32.43411,74.11068,Male,Punjab,3,0,1495,0
97,Office of AFC food Bhroki Wazirabad (Female),32.43411,74.11071,Female,Punjab,0,2,0,1206
1,Government Boys Primary School Thattha Faqeerullah.  (Combined),32.43508,74.09779,Combined,Punjab,2,2,1100,838
135,Dar-e-Arqam Main Branch- Wazirabad (Male),32.43713,74.11813,Male,Punjab,4,0,1889,0
136,Dar-e-Arqam Main Branch- Wazirabad (Female),32.43713,74.11816,Female,Punjab,0,3,0,1611
3,Government Boys Primary School Bhattike.  (Male),32.43758,74.10332,Male,Punjab,3,0,1586,0
21,Government Girls  High School Ghakka Mitter.  (Male),32.43803,74.14899,Male,Punjab,2,0,1349,0
22,Government Girls  High School Ghakka Mitter.  (Female),32.43803,74.14902,Female,Punjab,0,2,0,1076
140,Office of the SDO Building- Wazirabad (Combined),32.43842,74.11535,Combined,Punjab,1,1,444,381
20,Government Boys Elementary School Ghakka Mitter.  (Combined),32.43937,74.14969,Combined,Punjab,1,1,1027,763
130,PTCL Office Wazirabad (Female),32.44053,74.11675,Female,Punjab,0,2,0,829
4,Government Girls Primary School Bhattike.  (Female),32.44076,74.10298,Female,Punjab,0,2,0,1294
129,Office of the MC Wazirabad (Male),32.441,74.11604,Male,Punjab,2,0,1022,0
131,Girls Degree College Moti Bazar- Wazirabad (Male),32.44122,74.11944,Male,Punjab,4,0,2087,0
132,Girls Degree College Moti Bazar- Wazirabad (Female),32.44122,74.11947,Female,Punjab,0,4,0,1758
133,Girls Degree College Moti Bazar- Wazirabad (Male),32.44122,74.1195,Male,Punjab,3,0,1453,0
134,Girls Degree College Moti Bazar- Wazirabad (Female),32.44122,74.11953,Female,Punjab,0,3,0,1238
127,Government Boys Mission High School Moti Bazar Wazirabad (Male),32.44213,74.11938,Male,Punjab,3,0,1752,0
128,Government Boys Mission High School Moti Bazar Wazirabad (Female),32.44213,74.11941,Female,Punjab,0,3,0,1542
117,Govt.Girls High School Moti Bazar- Wazirabad (Male),32.44236,74.11798,Male,Punjab,2,0,1416,0
118,Govt.Girls High School Moti Bazar- Wazirabad (Female),32.44236,74.11801,Female,Punjab,0,2,0,1240
123,Government MC Boys Primary School No. 2- Wazirabad (Male),32.44379,74.11593,Male,Punjab,2,0,1523,0
124,Government MC Boys Primary School No. 2- Wazirabad (Female),32.44379,74.11596,Female,Punjab,0,2,0,1299
113,Government Boys Moulana Zafar Ali Khan Degree College Wazirabad (Male),32.44405,74.1203,Male,Punjab,4,0,1844,0
119,Government Boys Moulana Zafar Ali Khan Degree College Wazirabad (Male),32.44405,74.12033,Male,Punjab,3,0,1391,0
121,Government Boys Moulana Zafar Ali Khan Degree College Wazirabad (Male),32.44405,74.12036,Male,Punjab,3,0,1546,0
125,Government Public High School  Wazirabad (Male),32.445,74.11327,Male,Punjab,2,0,1305,0
126,Government Public High School  Wazirabad (Female),32.445,74.1133,Female,Punjab,0,2,0,1177
87,Government Girls Primary School Railway Colony- Wazirabad (Female),32.44522,74.10885,Female,Punjab,0,2,0,1038
89,Government Girls Primary School Railway Colony- Wazirabad (Female),32.44522,74.10888,Female,Punjab,0,2,0,1418
114,Government MC Boys High School Wazirabad (Female),32.44538,74.11894,Female,Punjab,0,4,0,1518
120,Government MC Boys High School Wazirabad (Female),32.44538,74.11897,Female,Punjab,0,3,0,1109
122,Government MC Boys High School Wazirabad (Female),32.44538,74.119,Female,Punjab,0,2,0,1334
86,M.C.Boys Primary School No.4 Railway Colony Wazirabad (Male),32.44613,74.10946,Male,Punjab,2,0,1318,0
88,M.C.Boys Primary School No.4 Railway Colony Wazirabad (Male),32.44613,74.10949,Male,Punjab,3,0,1650,0
111,Government Girls Primary School- No. 4- Wazirabad  (Male),32.44616,74.1198,Male,Punjab,3,0,1835,0
112,Government Girls Primary School- No. 4- Wazirabad (Female),32.44616,74.11983,Female,Punjab,0,3,0,1518
115,Government Boys Primary School Cheema Colony Wazirabad (Male),32.44628,74.1319,Male,Punjab,3,0,1318,0
116,Govt.Girls Primary School Cheema Colony Wazirabad (Female),32.44644,74.13177,Female,Punjab,0,3,0,1116
17,Government Girls Elementary School Winjowali   (Male),32.44693,74.13577,Male,Punjab,3,0,1944,0
18,Government Girls Elementary School Winjowali   (Female),32.44693,74.1358,Female,Punjab,0,2,0,1522
103,Govt.M.C.Girls High School Moh.Miani WZD.(Male),32.44705,74.11317,Male,Punjab,2,0,1308,0
104,Govt.M.C.Girls High School Moh.Miani WZD.(Female),32.44705,74.1132,Female,Punjab,0,2,0,1093
109,SK Girls High School- Main Bazar- Wazirabad (Male),32.4474,74.11541,Male,Punjab,2,0,1129,0
110,SK Girls High School- Main Bazar- Wazirabad (Female),32.4474,74.11544,Female,Punjab,0,2,0,950
15,Government Boys Primary School Winjowali   (Male),32.44752,74.13551,Male,Punjab,2,0,1468,0
16,Government Boys Primary School Winjowali   (Female),32.44752,74.13554,Female,Punjab,0,2,0,1194
105,Government MC Boys Primary School- No. 1- Wazirabad (Male),32.44763,74.11532,Male,Punjab,2,0,1308,0
107,Government MC Boys Primary School- No. 1- Wazirabad (Male),32.44763,74.11535,Male,Punjab,3,0,1588,0
149,Government Boys High School Sohdra. (Male),32.44927,74.17687,Male,Punjab,3,0,1529,0
150,Government Boys High School Sohdra. (Female),32.44927,74.1769,Female,Punjab,0,3,0,1272
106,Government MC Girls Primary School- No. 1- Wazirabad (Female),32.45031,74.11396,Female,Punjab,0,2,0,1159
108,Government MC Girls Primary School- No. 1- Wazirabad (Female),32.45031,74.11399,Female,Punjab,0,3,0,1485
19,Government Boys Primary School Chak Satia.  (Combined),32.45118,74.1581,Combined,Punjab,1,1,908,685
13,Government Girls Community Model school Talwarrah.  (Male),32.45552,74.17393,Male,Punjab,2,0,1366,0
14,Government Girls Community Model school Talwarrah.  (Female),32.45552,74.17396,Female,Punjab,0,2,0,1094
12,Government Boys Primary School Talwarrah  (Combined),32.45568,74.17757,Combined,Punjab,2,2,1102,852
145,Telephone Exchange Sohdra. (Male),32.45827,74.18687,Male,Punjab,3,0,1935,0
146,Veterinary Hospital Sohdra. (Female),32.45905,74.18243,Female,Punjab,0,3,0,1518
152,rural Health Center Sohdra. (Female),32.45927,74.18044,Female,Punjab,0,3,0,1363
151,Office of the Town Committee Sohdra. (Male),32.45937,74.18145,Male,Punjab,3,0,1651,0
147,Government Girls High School Sohdra. (Male),32.4627,74.1809,Male,Punjab,3,0,1740,0
148,Government Girls High School Sohdra. (Female),32.4627,74.18093,Female,Punjab,0,3,0,1442
5,Government Girls Primary School Harripur.  (Combined),32.46321,74.13156,Combined,Punjab,1,1,809,609
9,Government Girls Primary School Ram Garh. (Combined),32.48949,74.17262,Combined,Punjab,1,1,435,302
6,Government Boys Elementary School Laveriwala.  (Combined),32.49215,74.15911,Combined,Punjab,2,2,1079,846
11,Government Model Primary School Rana.  (Combined),32.50011,74.19549,Combined,Punjab,1,1,611,451
7,Government Model Primary School Tahliwala.  (Male),32.50211,74.1852,Male,Punjab,2,0,840,0
8,Government Model Primary School Tahliwala.  (Female),32.50211,74.18523,Female,Punjab,0,1,0,654
10,Government Model Primary School Behram.  (Combined),32.50441,74.20073,Combined,Punjab,1,1,601,461
