PollingStation,Lat,Lng,BoothType,Province,MaleBooths,FemaleBooths,MaleVoters,FemaleVoters
 241 - Government Girls Primary School Shadbad Colony   (Permanent),31.2276495129847,72.33247614857127,Combined,Punjab,1,1,565,483
 245 - Govt. Girls Primary School Kothian Wala (Permanent),31.227907614932086,72.36879322261292,Female,Punjab,0,3,0,1197
 243 - Government Girls Elementary School Sarwer Colony   (Permanent),31.22964,72.32471,Combined,Punjab,2,2,965,720
 242 - Government Boys Primary School Basti Lal- Sarwar Colny- Chak Ghumnana   (Permanent),31.23223,72.33013,Combined,Punjab,2,2,883,756
 217 - Government Boys Primary School Maghiana Chak Noon (Permanent),31.23284,72.28355,Combined,Punjab,2,2,813,690
 244 - Govt.  Primary School Lohleyan  Wala (Permanent),31.23318,72.36249,Male,Punjab,2,0,1477,0
 182 - Office Artificial Isemination Toba Road Jhang (Permanent),31.237512837958743,72.3307737027728,Male,Punjab,2,0,1173,0
 183 - Office Live Stock Toba Road Jhang (Permanent),31.23764198256334,72.33049977226477,Female,Punjab,0,3,0,1030
 219 - Government Girls Community Model School Nawaz Abad (Permanent),31.2393,72.29739,Combined,Punjab,2,2,698,532
 218 - Government Boys Primary School Nawaz Abad (Permanent),31.239993144121094,72.29742705822527,Combined,Punjab,2,2,939,686
 216 - Government Boys Primary School Kalu Wala Sial (Permanent),31.24113,72.35943,Combined,Punjab,1,1,458,390
 247 - Government Girls Primary School Al-Noor Colony Gojra Road Jhang (Permanent),31.24501,72.38947,Female,Punjab,0,2,0,1064
 246 - Government Boys Primary School Al-Noor Colony Gojra Road Jhang (Permanent),31.245575154189115,72.38969845451349,Male,Punjab,2,0,1288,0
 239 - Government Girls Community Model School Abbas Pura (Permanent),31.246081591715857,72.32000712436924,Male,Punjab,2,0,834,0
 240 - Government Girls Community Model School Abbas Pura (Permanent),31.246081591715857,72.3200371243692,Female,Punjab,0,2,0,723
 221 - Government Girls Elementary School- Hasnana (Primary Portion) Mouza Hasnana(Permanent),31.24926,72.29471,Female,Punjab,0,3,0,1527
 223 - Government Girls Elementary School (Middle Portion) Hasnana (Permanent),31.24953,72.29502,Combined,Punjab,1,1,507,417
 220 - Government Boys Primary School Beli Wala Mouza Hasnana (Permanent),31.24985,72.296,Male,Punjab,2,0,878,0
 235 - Government Girls Primary School- Basti Ghausia- Chak Naulan- Jhang.,31.25039,72.38938,Combined,Punjab,1,1,487,366
 173 - Government Girls  Primary School Siddiq Abad (Permanent),31.250677410133576,72.35523159767715,Female,Punjab,0,2,0,625
 175 - Punjab Social Security Hospital Mohallah Siddique Abad  (Permanent),31.25381,72.35167,Female,Punjab,0,2,0,1430
 172 - Government High School Jamia (Permanent),31.25413,72.35477,Male,Punjab,2,0,713,0
 248 - Government Girls Primary School Baig Colony (Permanent),31.25420161079103,72.36667960733156,Combined,Punjab,1,1,832,674
 174 - Allied School- 24-F Block Settellite Town Jhang (Permanent),31.25464,72.35256,Male,Punjab,2,0,1641,0
 162 - Government Elementary School Barkat Abad (Permanent),31.25493265753038,72.31447552492128,Male,Punjab,2,0,1186,0
 163 - Government Girls HIgh School Basti Malah (Junior Campus) Near Qabristan Jhang(Permanent),31.25547,72.31962,Female,Punjab,0,2,0,1021
 169 - Government Girls Secondary School Basti Malah Jhang (Permanent),31.25562,72.32176,Female,Punjab,0,3,0,1226
 168 - Government Boys Primary School Hussain Abad Toba Road Jhang (Permanent),31.255701648318695,72.32171555579005,Male,Punjab,2,0,1466,0
 222 - Government Girls Elementary School- Muslim Nagar (Permanent),31.25705,72.30975,Male,Punjab,2,0,1018,0
 178 - Government Girls Model Elementary School Mukhtar Abad (Permanent),31.25766237280799,72.33975839318191,Male,Punjab,2,0,1132,0
 179 - Government Girls Model Elementary School Mukhtar Abad (Permanent),31.257692994915818,72.33966434104897,Female,Punjab,0,3,0,948
 165 - Munir Memorial Public Middle School Gulshan Colony Jhang Sadar (Temporary),31.257853714050913,72.31519662108924,Female,Punjab,0,2,0,972
 167 - Jinnah Elementary Public School (Foundation)- Gulshan Colony- Jhang (Temporary),31.25807,72.31242,Female,Punjab,0,3,0,990
 200 - Government Girls Higher Secondary School Satellite Town (Permanent),31.25817,72.35179,Female,Punjab,0,4,0,1602
 160 - Mighiana Sub-Division- Near Tower- Basti Atta Wali- Toba Road- Jhang Sadar (Temprorary),31.25931,72.31973,Male,Punjab,2,0,1014,0
 166 - The Excellent Grammer Public School-  Basti Hamid Shah- Gali Khan Muhammad Hasnana Wali- Jhang Sadar.(Temporary),31.26003,72.31502,Male,Punjab,2,0,1137,0
 205 - Faran Model School Satellite Town Near Al-Khair Masjid (Permanent),31.26004600809013,72.35530848351274,Male,Punjab,3,0,1732,0
 194 - Government Secondary School of Special Education for Deef & Dump  Near Gatan Satellite Town Jhang (Permanent),31.26053,72.34785,Male,Punjab,2,0,785,0
 196 - Government Secondary School of Special Education for Deef & Dump  Near Satellite Town Jhang (Permanent),31.26053,72.34788,Male,Punjab,2,0,1450,0
 198 - Government Boys Elementary School Satellite Town (Permanent),31.260536590107172,72.35138205956588,Male,Punjab,2,0,1095,0
 199 - Government Boys Elementary School Satellite Town (Permanent),31.260536590107172,72.3514120595659,Male,Punjab,2,0,727,0
 193 - Saifia College- Gojra Road- Jhang Sadar (Temporary),31.26064,72.3412,Female,Punjab,0,2,0,1118
 176 - Government Agricultural Farm Jhang (Permanent),31.260793771277946,72.33501952519528,Male,Punjab,2,0,880,0
 161 - Elite House School System- New Eid Gah Road- Near Shamsi Karkhana- Toba Road- Jhang Sadar (Temporary),31.2611,72.31721,Female,Punjab,0,2,0,856
 180 - Office District Health Office Jhang (Permanent),31.261504644321477,72.33377124618383,Male,Punjab,2,0,562,0
 207 - Vocational College for Boys- Satelite Town- Jhang (Permanent),31.26155,72.35874,Male,Punjab,4,0,1600,0
 190 - Al-Bilal Model Girls High School Gojra Road Jhang (Temporary),31.26161,72.33793,Male,Punjab,2,0,1481,0
 192 - Dar-e-Arqum Public School Gojra Road   (Temporary),31.261956477019318,72.33777033816914,Male,Punjab,2,0,1257,0
 157 - Gazali Pilot School- Nai Eid Ghah Road Jhang Sadar (Temporary),31.262060674794178,72.31481936560465,Female,Punjab,0,3,0,1389
 181 - Nursing School Near Emergency (Permanent),31.262061507753184,72.33162316750568,Female,Punjab,0,2,0,547
 191 - Arqam Girls English Medium High School- Gojra Road Jhang (Temporary),31.26257,72.33729,Female,Punjab,0,3,0,1341
 177 - Government General Nursing School District Head Quarter Hospital Jhang Sadar (Permanent),31.262628413478105,72.33295297889137,Female,Punjab,0,2,0,736
 227 - Government Boys Elementary School Chak No. 268/JB (Permanent),31.262684453615158,72.39402860426864,Male,Punjab,2,0,957,0
 208 - Vocational College for Women- Link Road Jamia Chowk to Chiniot Morr- Satelite Town- Jhang (Permanent),31.26269,72.35873,Female,Punjab,0,4,0,1583
 145 - Government Girls High School  (Primary Campus) Harmal Pur (Basti Lohlay Shah) Near Janazah Gah Markazi (Permanent),31.262758276832855,72.30214325955487,Female,Punjab,0,3,0,1262
 228 - Government Boys Elementary School Chak No. 268/JB (Permanent),31.26279,72.39407,Female,Punjab,0,2,0,879
 139 - Government Girls High School  (Primary Campus) Harmal Pur (Basti Lohlay Shah) Near Janazah Gah Markazi (Permanent),31.262831718331032,72.30228929819307,Female,Punjab,0,3,0,1640
 226 - Government Girls Elementary School Chak No. 268/JB (Permanent),31.263180948296224,72.39711489047524,Combined,Punjab,1,1,623,496
 195 - Dar-E-Arqam Schools- 949-A- Satelite Town- Jhang,31.2632,72.34883,Female,Punjab,0,2,0,731
 164 - Office District Manager Muslim Auqaf- Bhakkar Road- Jhang Sadar (Permanent),31.26320336000644,72.31123716122733,Male,Punjab,2,0,1150,0
 144 - Government Girls High School  (Junior Campus) Harmal Pur   (Permanent),31.263371621034683,72.29982765105532,Male,Punjab,3,0,1470,0
 256 - Government English Medium Boys Primary School Chak Kacha (Permanent),31.263450311288157,72.27053602173225,Combined,Punjab,2,1,967,626
 143 - Government MC Boys Primary School No. 12 Mohallah Abbot Pura Jhang (Permanent),31.263953500783856,72.30988253396684,Female,Punjab,0,3,0,1455
 155 - Millat College- Jhang Sadar (Temporary),31.26411,72.31728,Male,Punjab,2,0,936,0
 206 - Government Girls Elementary School Satellite Town (Permanent),31.264174451542942,72.35615775949148,Female,Punjab,0,4,0,1542
 153 - Scholor Public School- Near Madu Adda- Jhang Sadar (Temporary),31.26455,72.3178,Male,Punjab,2,0,1076,0
 156 - Government Boys Primary School Riaz-ul-Islam (Permanent),31.265013142043884,72.31468854765691,Male,Punjab,2,0,847,0
 133 - Improvised Compound Madrisa Riaz-ul-Islam- Mohallah Chanda Wala (Temporary),31.265113285954527,72.3146667721337,Male,Punjab,2,0,938,0
 137 - Bright Future Public Model School Gali No. 2 Mohallah Ghosia Jhang (Temporary),31.26521,72.30676,Male,Punjab,2,0,1591,0
 171 - Government Hussainia High School (Primary Portion) Water Filter Side Jhang (Permanent),31.26536,72.32196,Female,Punjab,0,3,0,1227
 159 - Government Hussainia High School (Main Building) Sharqi Side Jhang (Permanent),31.265361981039593,72.32192553125407,Female,Punjab,0,2,0,940
 202 - Government Girls Model Primary School Bahari Colony  Satelite Town (Permanent),31.26543950882454,72.35078513829839,Female,Punjab,0,3,0,1188
 121 - Government MC Girls Primary School No. 14 Darbar Maratab Shah (Permanent),31.26544,72.30679,Female,Punjab,0,2,0,835
 201 - Government Boys Model Primary School Behari Colony  (Permanent),31.265458765061954,72.35079524676773,Male,Punjab,2,0,1321,0
 170 - Government Hussainia High School (Primary Portion) Jhang (Permanent),31.26550803825714,72.32203292748073,Male,Punjab,2,0,1100,0
 158 - Government Hussainia High School (Building Old Hall) Jhang (Permanent),31.265603458251768,72.3220312632997,Male,Punjab,3,0,1321,0
 138 - Rehman Public School-  Khaki Shah Road Basti Sultan Noon Jhang Sadar (Temporary),31.26573,72.30359,Male,Punjab,3,0,1280,0
 141 - Improvised Slaughter House- Near Mujahid Chowk- Jhang Sadar (Temporary),31.2661,72.30958,Male,Punjab,2,0,850,0
 142 - Improvised Slaughter House- Near Mujahid Chowk- Jhang Sadar (Temporary),31.2661,72.30961,Male,Punjab,2,0,868,0
 209 - Government Girls Primary School W-Block Near Masjid Siddiqia (Permanent),31.26630234421424,72.35730508201134,Male,Punjab,2,0,1079,0
 140 - Famous Grammer School Khaki Shah Road- Basti Sultan Noon Jhang Sadar (Temporary),31.26659,72.30631,Female,Punjab,0,2,0,798
 111 - Government Girls High School  Harmal Pur Hasnana Basti Kirli Wala,31.26679,72.2995,Male,Punjab,3,0,1292,0
 113 - Government Girls High School  Harmal Pur Hasnana Basti Kirli Wala (Permanent),31.26679,72.29953,Male,Punjab,2,0,1348,0
 120 - Government Girls High School  Harmal Pur Hasnana Basti Kirli Wala (Permanent),31.26679,72.29956,Male,Punjab,2,0,967,0
 134 - Inam Academy Mohallah Bagh Wala Gali Sheikh Zafar Wali- Jhang (Temporary),31.26682,72.31123,Female,Punjab,0,2,0,858
 184 - Government Boys Elementary School Ghazi Abad (Permanent),31.26698,72.33134,Male,Punjab,2,0,1339,0
 186 - Government Boys Elementary School Ghazi Abad (Permanent),31.26698,72.33137,Male,Punjab,2,0,1180,0
 188 - Arqam Secondary School- Near Memon Masjid- Dar Ul Sakina Road/Canal Road- Jhang (Temporary),31.26698,72.34174,Male,Punjab,2,0,1433,0
 185 - Government Girsl Elementary School Ghazi Abad (Permanent),31.267008048377676,72.3287683122165,Female,Punjab,0,2,0,980
 187 - Government Girls Elementary School Ghazi Abad (Permanent),31.267133833515334,72.32888970876101,Female,Punjab,0,3,0,1223
 197 - Tohaeed Model School- Behari Colony (Temporary),31.267331299034854,72.349879880663,Female,Punjab,0,2,0,1155
 150 - Government Girls College Jhang (Permanent),31.26753527392687,72.3207497841157,Female,Punjab,0,3,0,1327
 154 - Government Girls College Jhang Sadar  (Permanent),31.26755291854338,72.32075402472871,Female,Punjab,0,3,0,1277
 135 - Danish Model School Khaki Shah Road Jhang Sadar (Temporary),31.26788,72.31314,Male,Punjab,3,0,1262,0
 189 - Regional Passport Office- Dar-Ul-Sakina- Jhang (Permanent),31.26827,72.33495,Female,Punjab,0,3,0,1320
 112 - Mudassir Public School- Mohallah Hasnana Jhang Sadar (Permanent),31.26857,72.30381,Female,Punjab,0,3,0,1299
 204 - Government Model Primary School (Girls Portion) Ahmad Nagar Faiz abad Satelite Twon (Permanent),31.26858,72.35362,Female,Punjab,0,3,0,1136
 149 - Government Girls High School Gojra Road Jhang Sadar (Permanent),31.268651210742178,72.32045860996178,Male,Punjab,3,0,1328,0
 203 - Government Model Primay School- Ahmad Nagar- Faizabad (Boys Portion)- Satelite Town- Jhang,31.26869,72.35211,Male,Punjab,2,0,1230,0
 136 - Toor Public Model Girls High School Bazar Khtian Wala Jhang Sadar (Temporary),31.26907,72.30992,Female,Punjab,0,3,0,1173
 117 - Punjab Cadet Girls Elementary School- Mohallah Dhup Sari (Temporary),31.27002289895421,72.30610217034283,Male,Punjab,2,0,1167,0
 115 - Punjab Girls Elementry School Branch No. 2 Mohallah Dhoop Sarri Jhang (Temporary),31.27059,72.30542,Male,Punjab,2,0,1228,0
 151 - Office Excise & Texation- Jhang Sadar (Permanent),31.27067,72.32548,Male,Punjab,2,0,695,0
 122 - Government Islamia High School Jhang Sadar (Permanent),31.2707,72.31709,Male,Punjab,1,0,272,0
 124 - Government Islamia High School Jhang Sadar (Permanent),31.2707,72.31712,Male,Punjab,2,0,956,0
 125 - Government Islamia High School Jhang Sadar (Permanent),31.2707,72.31715,Male,Punjab,2,0,1172,0
 128 - Government Islamia High School Jhang Sadar (Permanent),31.2707,72.31718,Male,Punjab,3,0,1525,0
 210 - Government Girls Primary School Faiz Abad (Permanent),31.27098492246699,72.35923108719429,Female,Punjab,0,2,0,842
 152 - Government Girls Primary School Shadab Colony- Jhang Sadar (Permanent),31.27139853037525,72.32935537568827,Female,Punjab,0,2,0,678
 130 - The Aikin- Near Kotwali- Jhang Sadar (Temporary),31.27263,72.31526,Female,Punjab,0,3,0,1239
 129 - Employment Armed Office Near Thana Kotwali- Jhang Sadar,31.2727,72.3157,Male,Punjab,2,0,1458,0
 214 - Government Girls High School Mai Heer (Permanent),31.27281834830683,72.33415495657741,Male,Punjab,2,0,1110,0
 215 - Government Girls High School Mai Heer (Permanent),31.27281834830683,72.3341849565774,Female,Punjab,0,2,0,940
 119 - Fatima Jinnah Chief Secondry School- Branch No. 01. Mohallah Piran Wala (Temporary),31.273028901301878,72.30939988387391,Male,Punjab,2,0,1181,0
 123 - Government MC Girls High School Mohallah Sultan Wala Jhang Sadar (Permanent),31.27311,72.31293,Female,Punjab,0,3,0,1418
 126 - Government MC Girls High School Mohallah Sultan Wala Jhang Sadar (Permanent),31.27311,72.31296,Female,Punjab,0,2,0,1170
 127 - Government MC Girls High School Mohallah Sultan Wala Jhang Sadar (Permanent),31.27312145964259,72.31288843388444,Female,Punjab,0,2,0,1062
 94 - Government MC Primary School No. 7 Near Masjid Allah Wali Opposite Open Place Bulaq Shah Jhang Sadar (Permanent),31.27325807172984,72.30615878169579,Female,Punjab,0,2,0,1168
 116 - Government MC Primary School No. 7 Near Masjid Allah Wali Opposite Open Place Bulaq Shah Jhang Sadar  (Permanent),31.27333,72.30621,Female,Punjab,0,3,0,1371
 114 - Government Model Primary School Dabkaran Jhang Sadar (Permanent),31.27346,72.30385,Female,Punjab,0,3,0,1421
 118 - Government Model Primary School Dabkaran Jhang Sadar (Permanent),31.27347505130942,72.30393820913935,Female,Punjab,0,2,0,1156
 89 - District Labour Office- Community Development Department- Dhaji Road Jhang Sadar (Permanent),31.27362998508872,72.31518882079402,Male,Punjab,2,0,1274,0
 93 - Faran Model Boys School- Bazar Khetian Wala Jhang Sadar (Temporary),31.27363,72.30873,Male,Punjab,3,0,1438,0
 131 - Fatima Jinnah Chief Secondary School Branch No. 02. Mohallah Piran Wala Jhang Sadar (Temporary),31.2737,72.31026,Male,Punjab,4,0,2037,0
 91 - Improvised Plot Water Tanky- Dhaji Road- Jhang Sadar (Temporary),31.27379741147772,72.31465557640931,Male,Punjab,2,0,995,0
 237 - Government Girls High School Kot Sai Singh  (Permanent),31.2739,72.3498,Combined,Punjab,1,1,707,727
 238 - Government Girls High School Kot Sai Singh  (Permanent),31.2739,72.34983,Combined,Punjab,1,1,976,665
 90 - Madrisa-tul-Benat Elementary  School- Dhaji Road Jhang Sadar (Permanent),31.27402,72.31276,Female,Punjab,0,2,0,1186
 92 - Madrisa-tul-Benat Elementary  School- Dhaji Road Jhang Sadar (Permanent),31.27402,72.31279,Female,Punjab,0,2,0,782
 146 - Moon Light Girls Secondary School (Building/Campus 01)Machine wali Gali Moh. Bullaq Shah- Jhang Sadar (Temporary),31.274371970849636,72.30492520224725,Male,Punjab,2,0,871,0
 147 - Moon Light Girls Secondary School (Building/Campus 02)Machine wali Gali Moh. Bullaq Shah- Jhang Sadar (Temporary),31.27439,72.30494,Male,Punjab,2,0,870,0
 71 - Office XEN DO (Roads) Highway Division Jhang (Permanent),31.274488752246207,72.32323375517502,Male,Punjab,2,0,933,0
 148 - Al-Burhan Model High School Chenab Road-  Jhang Sadar  (Temporary),31.27453,72.30449,Female,Punjab,0,3,0,1302
 73 - Office XEN Building Division Jhang  (Permanent),31.27462060706386,72.32324076495966,Male,Punjab,2,0,1184,0
 213 - Government Boys Primary School Heer Camp (Permanent),31.27504,72.3343,Combined,Punjab,1,1,521,409
 212 - Government Boys Primary School Heer Camp (Permanent),31.275066187387328,72.33428298700333,Combined,Punjab,2,2,785,622
 132 - S.N Forces School- Chowk Khawaja Sweets (Permanent),31.27512,72.30947,Female,Punjab,0,2,0,1776
 211 - Complex Football Ground Mai Heer (Permanent),31.275571847674996,72.33242548934028,Combined,Punjab,2,2,921,805
 352 - Government Girls Middle School Chak No. 176/JB,31.27568,72.62912,Combined,Punjab,2,2,969,731
 106 - Allaig Elementary School Gali Masjid Wali Gohar Shah- Jhang Sadar   (Temporary),31.275889223373767,72.31882769525544,Female,Punjab,0,3,0,1263
 72 - Government Girls Elementary School Mohallah Kapahian Wala Jhang Sadar (Permanent),31.27613,72.32468,Female,Punjab,0,2,0,934
 74 - Government Girls Elementary School Mohallah Kapahian Wala Jhang Sadar (Permanent),31.276135476703974,72.32466479720142,Female,Punjab,0,2,0,887
 85 - Government MB High School Rail Bazar Jhang Sadar (Permanent),31.27643279752782,72.31463449018692,Male,Punjab,3,0,1459,0
 87 - Government MB High School Rail Bazar towards Jhang Sadar (Permanent),31.276459195419896,72.31473262680382,Male,Punjab,2,0,1088,0
 88 - Government MB High School Rail Bazar towards Jhang Sadar (Permanent),31.276512811219693,72.31463351403099,Female,Punjab,0,2,0,889
 353 - Government Boys Primary School Chak No. 177/JB,31.27653,72.61543,Combined,Punjab,1,1,704,630
 86 - Government MB High School Rail Bazar towards Jhang Sadar (Permanent),31.276544928291564,72.31467233135655,Female,Punjab,0,3,0,1251
 69 - Office Environement- Ayub Chowk- Mohallah Kapaiyan Wala- Jhang,31.277,72.32313,Male,Punjab,2,0,1021,0
 76 - Government Boys Primary School Barkat-ul-Islam Mohallah Bhabrana (Permanent),31.27768,72.30799,Female,Punjab,0,2,0,1037
 107 - Government Girls Sadhora Muslim High School Jhang Sadar (Permanent),31.27809,72.31425,Male,Punjab,2,0,898,0
 236 - Government Boys Primary School- Kot Sai Singh.,31.27811129769661,72.35202300807563,Combined,Punjab,2,2,859,772
 105 - (PAF) Pakistan Academic Foundation  Girls High School- Near Taaj Mahal Cinema Gali Array Wali Kacha Kot Road- Jhang Sadar (Temporary),31.27824,72.31758,Male,Punjab,3,0,1451,0
 66 - Al-Qamar Boys High School Mohallah Jalal Abad- Jhnag Sadar (Temporary),31.27825,72.32857,Male,Punjab,2,0,1290,0
 110 - Office Muncipal Committee (Audit Section) Jhang (Permanent),31.27872,72.3131,Male,Punjab,2,0,750,0
 109 - New Building office Baldia Municipal Committee Back Side (Permanent),31.27872,72.31313,Female,Punjab,0,1,0,631
 79 - Government MC Girls Primary School No. 6 Qasr-e-Istaqlal Jhang Bazar Jhang  (Permanent),31.279331570614236,72.31123930387749,Male,Punjab,3,0,1582,0
 70 - Crescent Model Elementary School- Mohallah Jalal Abad (Middle Campus) Main Branch Near Gali Panj Peer Darbar,31.27935,72.32408,Female,Punjab,0,2,0,934
 67 - Nayyab Public Girls Middle  School- Mohallah Jalalabad (Temporary),31.27952,72.32932,Female,Punjab,0,3,0,1985
 101 - Office of the Population Family Planning New Sabzi Mandi Road- Jhang Sadar,31.27961,72.31659,Female,Punjab,0,3,0,1291
 77 - Office Evaceue Trust Board Mohallah Bhabrana Jhang   (Permanent),31.279759652044532,72.31118275880216,Male,Punjab,3,0,1794,0
 108 - Al-Faisal School- MPA Road- Sheikh Colony- Jhang.(Temporary),31.27997,72.31577,Female,Punjab,0,2,0,746
 75 - Aafaq Public High School- Mohallah Bhabhrana- Jhang Sadar Branch No. 01 (Permanent),31.27997600465444,72.30899683722312,Male,Punjab,2,0,1197,0
 103 - Chenab Academy High School- Opposite Gali Sheikh Marbal Factory- Sabzi Mandi Road- Near Tanga Adda (Temporary),31.28029,72.31297,Male,Punjab,3,0,1544,0
 68 - Al-Qamar Boys High School Mohallah Jalala Abad- Jhang Sadar (Middle Portion) (Temporary),31.28055,72.32931,Male,Punjab,1,0,992,0
 229 - Government Boys Elementary School (Middle Portion) Chak No. 269/JB (Permanent),31.28074,72.40186,Combined,Punjab,1,1,524,443
 230 - Government Boys Elementary School (Middle Portion) Chak No. 269/JB (Permanent),31.28074,72.40189,Combined,Punjab,1,1,592,482
 78 - Ghazali Pilot Girls School- Mohallah Bhabhrana (Temporary),31.28127,72.30936,Female,Punjab,0,2,0,1479
 102 - Islamic Mishionery Girls Elementary School (Foundation)- Mohallah Hussain Abad- Sargodha Road- Back Side to Asharfia Masjid Street ICE Factory- Sagodha Road,31.2817,72.31729,Male,Punjab,2,0,890,0
 104 - Islamia Girls High School Nai Sabaz Mandi Ahmed Nagar   (Permanent),31.28179547744471,72.31457623957479,Female,Punjab,0,3,0,1268
 83 - Government Boys Primary School Nusrat Abad Basti Lakhi Wali Jhang Sadar (Permanent),31.28215631498451,72.3064431516303,Male,Punjab,4,0,1629,0
 65 - Farhan Model School Mohallah Jalal Abad- Jhang Sadar   (Temporary),31.28220834108595,72.32935438495828,Female,Punjab,0,2,0,1008
 233 - Government Boys High School Kot Sai Singh   (Permanent),31.282417751606047,72.36644878908723,Combined,Punjab,1,1,821,544
 234 - Government Boys High School Kot Sai Singh   (Permanent),31.28241811368174,72.36645598197107,Combined,Punjab,1,1,740,587
 64 - Nasir Public School Street Yousaf Bhatty Wali Basti Deewan Wali Jhang Saddar (Temporary),31.28257,72.327,Male,Punjab,2,0,1177,0
 84 - Government Girls Elementary School Mohallah Jogian Wala (Permanent),31.28270248819893,72.30724563517654,Female,Punjab,0,3,0,1311
 55 - Dar-e-Arqum Girls Model School Mohallah Zafar Abad/Yousaf Abad Near Masjid Zunoraine Purana Chiniot Road (Temporary),31.28358,72.32404,Female,Punjab,0,3,0,1569
 62 - Sofa Public Girls Elementary School Purana Chiniot Road Gali Karachi Cycle Works Wali- Jhang Sadar  (Temporary),31.28415171350717,72.32605171198058,Male,Punjab,3,0,1378,0
 51 - Government Girls College- Jhang City   (Permanent),31.28485,72.32686,Male,Punjab,2,0,601,0
 35 - Govt. Girls College- Jhang City,31.28485,72.32689,Male,Punjab,3,0,848,0
 63 - Government Girls Elementary School- Basti Dewan Wali Sharqi- Purana Chiniot Road- Jhang Sadar (Permanent),31.28522,72.32799,Female,Punjab,0,2,0,1158
 53 - Aansa School System Jhang   Basti Dewan Wali Sharqi- Near Purana Chiniot Road- Jhang Sadar.  (Temporary),31.28547,72.32584,Male,Punjab,2,0,1081,0
 61 - Government Primary School- Qamar-ul-Islam Jalal Abad,31.28580368422942,72.33207371919993,Female,Punjab,0,3,0,1452
 54 - Johar Girls High School- Basti Dewan Wali Gharbi/ Mohallah Rasool Pura- Near Old Chiniot Road- Jhang. (Temporary),31.28626,72.32575,Male,Punjab,2,0,745,0
 58 - Rafique Memorial School- Marzi Pura Sharqi- Sargodha Road  Near Lari Adda (Temporary),31.28756,72.31971,Male,Punjab,3,0,1465,0
 60 - Hudaibia Public Model School- Basti Dewan Wali Sharqi Near Rasheed Chowk- Purana Chiniot Road- Jhang Sadar.,31.28768,72.3278,Male,Punjab,3,0,1676,0
 56 - Al-Badar Education Foundation- Rasheed Chowk- Jhang (Temporary),31.28868,72.32679,Male,Punjab,3,0,1260,0
 59 - Government Girls Model  Primary School Marzi Pura Sharqi- Near Rasheed Chowk- Lari Adda Road-  Jhang Sadar   (Permanent),31.288878141753024,72.3245635408709,Female,Punjab,0,2,0,1199
 97 - Government Boys High School College Road Adhiwal (Ground Portion New Building Sharqi Gate) (Permanent),31.28893,72.31856,Female,Punjab,0,2,0,1499
 96 - Government Boys High School College Road Adhiwal (Ground Portion New Building Sharqi Gate) (Permanent),31.28894020611706,72.31864919424923,Male,Punjab,4,0,1875,0
 95 - Government Boys High School College Road Adhiwal (Permanent),31.288943942167016,72.31874182141544,Male,Punjab,2,0,979,0
 57 - Government Girls Model  Primary School Marzi Pura Sharqi- Near Rasheed Chowk- Lari Adda Road-  Jhang Sadar   (Permanent),31.28895293500921,72.32468646342048,Female,Punjab,0,2,0,1235
 100 - Government Boys High School College Road Adhiwal (Ground Portion New Building Sharqi Gate) (Permanent),31.288972856668575,72.3189020499576,Male,Punjab,2,0,647,0
 98 - Government Boys High School College Road Adhiwal (Permanent),31.28903693302836,72.31873181825385,Male,Punjab,1,0,668,0
 99 - Government Boys High School Adhiwal College Road (Permanent),31.289088710615342,72.31874874109536,Female,Punjab,0,3,0,1293
 255 - Government Girls Community Model School Pump Zulifqar (Permanent),31.28942,72.29195,Combined,Punjab,1,1,612,477
 358 - Government Girls Primary School Chak No. 213/JB,31.28993,72.55471,Combined,Punjab,2,2,910,713
 80 - Government Degree College (Allama Iqbal Block) College Chowk- Sargodha Road (Permanent),31.290052482637364,72.31798647801996,Female,Punjab,0,3,0,1178
 81 - Government Degree College (Shoaib Block) Jhang College Chowk- Sargodha Road (Permanent),31.29017,72.31796,Male,Punjab,2,0,990,0
 82 - Government Degree College (Allama Iqbal Block) College Chowk- Sargodha Road (Permanent),31.29017,72.31799,Female,Punjab,0,2,0,777
 224 - Government Boys Primary School Chah Mehr. Jan Muhammad Wala Dera Haji Waryam Wala   (Permanent),31.29109047997236,72.27550576079166,Combined,Punjab,1,1,650,559
 30 - Al-Bakhsh Memorial School Systment- Oadan Wali Basti Purana Chiniot Road Jhang City (Temporary),31.29131,72.32879,Female,Punjab,0,3,0,1110
 232 - Government Girls Primary School Chak No. 270/JB (Permanent),31.292202559351704,72.38927788991423,Combined,Punjab,1,1,529,448
 49 - Gillani Model School Chowk Adhiwal  (Temporary),31.29232,72.31745,Male,Punjab,3,0,1343,0
 38 - Government Primary School Dallay Wala   (Permanent),31.292446271481328,72.32558282459645,Female,Punjab,0,4,0,1653
 225 - Government Girls Primary School Chah Jan Muhammad Wala   (Permanent),31.29253814406198,72.27642938003505,Combined,Punjab,1,1,829,722
 362 - Government Girls Primary School Chak No. 214/JB (Abadi Gujjar),31.293320117478043,72.53982661470506,Combined,Punjab,1,1,602,507
 231 - Government Boys Primary School Chak No. 270/JB (Permanent),31.29371,72.39436,Combined,Punjab,1,1,498,419
 259 - Government Girls Primary School Chak No. 215/JB,31.29389,72.49916,Combined,Punjab,1,1,621,472
 263 - Government Girls High School Chak No. 267/JB,31.29435,72.41318,Combined,Punjab,2,2,793,566
 50 - Government Girls Primary School English Medium Choudhary Colony Jhang City (Permanent),31.295129528991385,72.32570574325366,Female,Punjab,0,3,0,1182
 23 - Pak Muktab School Community Center Jhang City (Temporary),31.295631432177395,72.3203119426902,Male,Punjab,3,0,1470,0
 24 - Government Vocational Traning Center Chah Shadi Wala Jhang City   (Permanent),31.295685401317712,72.32047097680682,Female,Punjab,0,3,0,1249
 22 - Government Girls Middle School Chak Noor shah  Rehman Colony Jhang City  (Permanent),31.29591,72.31352,Female,Punjab,0,2,0,799
 262 - Government Boys Primary School Chak No. 267/JB (Male),31.296164533561882,72.41463926253516,Combined,Punjab,1,1,498,433
 20 - Office Wapda  Near Rehman Cotton Factory Sargodha Road (WEST)- Jhang City .,31.29824,72.31555,Male,Punjab,2,0,992,0
 270 - Government Boys Primary School Chak No. 266/JB Abadi Ameeray Wali,31.30017,72.43969,Combined,Punjab,1,1,505,388
 39 - Government Boys Elementary School Chak Janobi   (Permanent),31.30028,72.3271,Male,Punjab,2,0,1034,0
 37 - Government Boys Elementary School Chak Janobi   (Permanent),31.30028,72.32713,Male,Punjab,2,0,1059,0
 29 - Adeel Public School- Opposite Shehni Wala Mohallah- Purana Chiniot Road- Jhang.,31.30029,72.33523,Male,Punjab,3,0,1336,0
 52 - Government MC Primary School Branch No. 2 Jhang City    (Permanent),31.300296363438765,72.3227335394595,Female,Punjab,0,1,0,558
 43 - Government Girls Higher Secondary School- Chak Janobi- Jhang City (Permanent),31.30034,72.33098,Female,Punjab,0,2,0,784
 32 - Government Girls Higher Secondary School- Chak Janobi- Jhang City (Permanent),31.30034,72.33101,Female,Punjab,0,2,0,1100
 34 - Government Girls Higher Secondary School- Chak Janobi- Jhang City (Permanent),31.30034,72.33104,Female,Punjab,0,3,0,1104
 36 - Government Girls Higher Secondary School- Chak Janobi- Jhang City (Permanent),31.30034,72.33107,Female,Punjab,0,2,0,618
 21 - Government Primary School- Chak Noor Shah West Side Sargodha Road Jhang City (Permanent),31.30084,72.30916,Female,Punjab,0,3,0,1348
 271 - Government Girls Primary School Chak No. 266/JB (Sharqi),31.30136,72.43806,Combined,Punjab,1,1,530,386
 48 - Children Peradise Model School Mohallah Sharifan Wala Jhang City  (Temporary),31.301581895073607,72.32707061316593,Female,Punjab,0,2,0,733
 357 - Government Girls Elemantry School Chak No. 256/JB,31.30192,72.60654,Combined,Punjab,1,1,589,517
 44 - Government Girls High School Tanga Adda Jhang City (Permanent),31.30215,72.32371,Male,Punjab,2,0,892,0
 45 - Government Girls High School Tanga Adda Jhang City (Permanent),31.30215539880352,72.3235836339392,Male,Punjab,2,0,670,0
 359 - Government Boys High School Chak No. 214/JB,31.30217,72.56221,Combined,Punjab,1,1,387,306
 360 - Government Boys High School Chak No. 214/JB,31.30217,72.56224,Combined,Punjab,1,1,698,578
 361 - Government Boys High School Chak No. 214/JB,31.30217,72.56227,Combined,Punjab,1,1,695,479
 19 - Fatima Zehra School- Chungi No. 22- Sargodha Road- West Side- Jhang (Temporary),31.30252,72.31527,Male,Punjab,2,0,1110,0
 46 - Kanwal Model Elementary School and Academy Near Tanga Adda Jhang City  (Temporary),31.303037989545512,72.32239687614913,Female,Punjab,0,3,0,1349
 27 - Al-Muslim Ideal Girls Secondry School Madan Shah Jhang City,31.3032,72.32976,Male,Punjab,3,0,1224,0
 47 - Imtiaz Public Elementary School Mohallah Sharifan Wala (Temporary),31.303224719292256,72.3275763137808,Male,Punjab,2,0,843,0
 257 - Government Boys Elementary School Jalal Abad  (Permanent),31.303228923452757,72.34265083935283,Combined,Punjab,2,1,818,638
 16 - G.M Girls High School- Qabristan Road- Jhang City.,31.30345,72.31968,Male,Punjab,3,0,1422,0
 40 - Government Boys Elementary School Shehni Wala- Jhang City (Permanent),31.30354,72.33657,Male,Punjab,3,0,1144,0
 31 - Government Boys Elementary School Shehni Wala (Permanent),31.30354,72.3366,Male,Punjab,3,0,1247,0
 17 - Care Grammer School- Gali Near Madina Masjid Qabristan- Jhang City.,31.30371,72.32037,Female,Punjab,0,3,0,1251
 261 - Health Centere Chak No. 220/JB,31.303729063149976,72.45943894042462,Combined,Punjab,1,1,403,283
 41 - Leads School System (City Campus)- Shehni Wali Basti- Purana Chiniot Road- Jhang City.,31.30381,72.33733,Female,Punjab,0,3,0,1043
 33 - Umer Foundation Model School System- Mohallah Madan Shah- Jhang City.,31.30383,72.32842,Male,Punjab,3,0,1183,0
 42 - Government MC Primary School Branch No. 6 Jhang   (Permanent),31.30409899272762,72.33142128470976,Male,Punjab,2,0,944,0
 6 - Government Boys High School- Primary Portion Branch No. 01 Jhang City   (Permanent),31.30414,72.32248,Female,Punjab,0,3,0,1602
 18 - Bab-Ul-Ilm Education System- Chak Noor Shah- Jhang City (Temporary),31.30415,72.313,Male,Punjab,2,0,582,0
 28 - Sidra Public School Street Taqwa Masjid Wali Jhang City (Temporary),31.30428,72.32976,Female,Punjab,0,3,0,1046
 292 - Government Boys Primary School Basti Mallah (Permanent),31.304598156149883,72.27729178254853,Combined,Punjab,1,1,365,302
 2 - Government Girls High School Chak Shumali Jhnag City (Permanent),31.30495,72.31632,Female,Punjab,0,3,0,1290
 15 - Government Girls High School Chak Shumali Jhnag City (Permanent),31.305001784754403,72.31633731520668,Female,Punjab,0,3,0,1541
 7 - Bashir Memorial School- Near Masjid Qaharan Wali-  Melad Chowk- Jhang City.,31.30543,72.31993,Male,Punjab,2,0,1349,0
 260 - Government Girls Elementry School Chak No. 220/JB,31.30548,72.45914,Combined,Punjab,1,1,767,647
 14 - Umer Foundation Model School- Mohallah Munshian Wala- Jhang city,31.30559,72.31962,Male,Punjab,3,0,1191,0
 258 - Government Boys Primary School Chak No. 215/JB,31.30639,72.49583,Combined,Punjab,1,1,661,466
 11 - Al-Malik Public School- Masjid Al-Habib Railway Road-  Jhang City,31.30673,72.33141,Male,Punjab,1,0,636,0
 3 - Al-Mitra Model School Jhang City   (Temporary),31.30709674500177,72.32108309960476,Male,Punjab,2,0,969,0
 12 - Improvised Galla Mundi Railway Road Jhang City   (Temporary),31.30725,72.33512,Male,Punjab,2,0,816,0
 26 - Al-Muslim Ideal School (Hamza Campus) Near Masjid Habib Railway Road Mohalla Kalwaran Wala Jhang City   (Temporary),31.30726,72.33075,Female,Punjab,0,3,0,1234
 25 - Govt. MC Girls Primary School- Branch No. 02- Masjid Al-Habib- Railway Road- Jhang City (Permanent),31.30733,72.33095,Male,Punjab,3,0,1458,0
 4 - Pak Oxford Education System Moh. Gulab Wala Jhang City   (Temporary),31.30735284210344,72.32064680494551,Female,Punjab,0,2,0,780
 13 - Qasim Model Public School Mohallah Dawood Shah- Ward No. 08 Jhang City   (Temporary),31.307728019028296,72.32682477323965,Female,Punjab,0,3,0,1658
 318 - Government Girls Primary School Chak No. 182/JB (Gadi),31.30825,72.54733,Combined,Punjab,1,1,520,426
 5 - Government Girls Primary School Mohallah Qazian Wala Eid Gah Jhang City   (Permanent),31.308424686191273,72.32313115594653,Male,Punjab,3,0,1250,0
 8 - Hira Foundation Girls Elementry School New Eid Gah Jhang City,31.30844374271912,72.3226352223386,Male,Punjab,2,0,1114,0
 10 - Government Model Primary School Khokhran Wala Jhang City  (Permanent),31.30875,72.32715,Female,Punjab,0,2,0,1593
 1 - Fatima Model Girls High School Near Eid Ghah Mohallah Gulab Wala Jhang City   (Temporary),31.308758590179913,72.31824777617952,Male,Punjab,3,0,1573,0
 9 - Government Girls Model Primary School  Kakay Araiyan Railway Phatak  Jhang City (Permanent),31.31056708353807,72.34333894465553,Male,Punjab,2,0,1235,0
 340 - Government Boys Primary School Chak No. 183/JB,31.31068,72.53722,Combined,Punjab,1,1,683,594
 356 - Government Boys Primary School Chak No. 256/JB,31.31138,72.60475,Combined,Punjab,1,1,666,628
 253 - Government Girls Primary School Basti Ghogay Wali   (Permanent),31.313465109091315,72.33020821502039,Male,Punjab,2,0,804,0
 254 - Government Girls Primary School Basti Ghogay Wali   (Permanent),31.313465109091315,72.3302382150204,Female,Punjab,0,2,0,624
 291 - Government Boys Primary School Jindran (Permanent),31.313726647153082,72.29466118277253,Combined,Punjab,1,1,575,423
 249 - Government Boys Primary School Basti Ghogay Wali   (Permanent),31.31448594570666,72.33054140975236,Male,Punjab,2,0,1067,0
 250 - Government Boys Primary School Basti Ghogay Wali   (Permanent),31.31448594570666,72.3305714097524,Female,Punjab,0,2,0,813
 317 - Government Girls Primary School Chak No. 181/JB (Gharbi),31.31716359574211,72.57588421083136,Combined,Punjab,1,1,533,406
 355 - Government Boys High School Chak No. 254/JB,31.318558927386295,72.6352856016733,Combined,Punjab,1,1,524,352
 354 - Government Girls Primary School Chak No. 254/JB,31.318664091080166,72.63403702427205,Combined,Punjab,1,1,805,588
 268 - Government Girls Elementry School Chak No. 265/JB,31.32005,72.42945,Combined,Punjab,1,1,643,573
 269 - Government Girls Elementry School Chak No. 265/JB,31.32005,72.42948,Combined,Punjab,1,1,729,609
 251 - Government Model Primary School Syedan Wali (Permanent),31.323358488087095,72.3455285333795,Male,Punjab,1,0,807,0
 252 - Government Model Primary School Syedan Wali (Permanent),31.32337,72.3455,Female,Punjab,0,1,0,670
 335 - Government Girls Community School Chak No. 174/JB,31.324754245264273,72.48875139304658,Combined,Punjab,1,1,642,516
 290 - Government Girls Primary School Patoana (Permanent),31.32547,72.29379,Female,Punjab,0,2,0,874
 278 - Government Boys Primary School Abdul Aziz,31.32559,72.36929,Combined,Punjab,2,2,899,644
 279 - Government Boys Primary School Abdul Aziz,31.32559,72.36932,Combined,Punjab,2,2,980,658
 289 - Government Boys Elementary School Patoana (Permanent),31.32578,72.29146,Male,Punjab,2,0,1117,0
 336 - Government Boys High School Chak No. 175/JB,31.32636,72.50953,Combined,Punjab,1,1,696,592
 337 - Government Boys High School Chak No. 175/JB,31.32636,72.50956,Combined,Punjab,1,1,690,535
 338 - Government Boys High School Chak No. 175/JB,31.32636,72.50959,Combined,Punjab,1,1,569,506
 339 - Government Boys Primary School Chak No. 175/JB,31.32832,72.50842,Combined,Punjab,1,1,284,260
 316 - Government Girls Primary School Chak No. 181/JB (Sharqi),31.32948,72.60451,Combined,Punjab,1,1,691,592
 265 - Government Girls High School Chak No. 262/JB,31.332,72.46722,Combined,Punjab,2,2,992,829
 315 - Government Boys Primary School Chak No. 180/JB,31.3323,72.57805,Combined,Punjab,1,1,518,407
 342 - Government Girls Primary School Chak No. 169/JB (Garwah),31.33544,72.55547,Female,Punjab,0,2,0,759
 267 - Government Girls Primary School Chak No. 264/JB (Mahniwala),31.335871066922262,72.42646167017917,Combined,Punjab,1,1,647,488
 343 - Government Boys High School Chak No. 169/JB,31.33788,72.55795,Male,Punjab,2,0,993,0
 266 - Government Boys High School Chak No. 263/JB,31.33797,72.44547,Combined,Punjab,2,1,854,745
 395 - Government Boys Primary School (Sairwala) Kul Kurai,31.33821,72.33681,Combined,Punjab,1,1,765,637
 331 - Government Boys Primary School Chak No. 255/JB,31.33879,72.62134,Combined,Punjab,2,1,909,690
 344 - Government Girls Community School Chak No. 179/JB,31.33904,72.57186,Combined,Punjab,1,1,431,370
 328 - Government Boys Primary School Chak No. 253/JB,31.33971,72.6557,Combined,Punjab,1,1,582,450
 329 - Government Girls Primary School Chak No. 253/JB,31.339784079257633,72.65265397719448,Combined,Punjab,1,1,527,440
 286 - Government Girls High School Habib,31.340602596688967,72.29891575760125,Combined,Punjab,1,1,417,294
 287 - Government Girls High School Habib,31.340602596688967,72.2989457576012,Combined,Punjab,1,1,745,607
 341 - Government Boys Primary School Chak No. 169/JB (Aouray),31.34119,72.56071,Combined,Punjab,1,1,795,589
 334 - Government Boys Primary School Chak No. 172/JB,31.34399,72.51437,Combined,Punjab,1,1,718,569
 333 - Government Boys Primary School Chak No. 171/JB,31.35162,72.54079,Combined,Punjab,2,1,830,577
 391 - Government Girls Elementry School Sheikh Chuharh,31.35325,72.44938,Combined,Punjab,2,2,867,724
 392 - Government Girls Elementary School Sheikh Chuharh,31.35325,72.44941,Combined,Punjab,1,1,534,468
 351 - Government Girls Primary School Chak No. 173/JB,31.35363,72.49895,Combined,Punjab,1,1,599,550
 332 - Government Girls Primary School Chak No. 171/JB (Mangani),31.35461,72.54302,Combined,Punjab,1,1,490,397
 394 - Government Boys Primary School (Shah Hussain Gharbi) Chak Sheikhena,31.35603,72.35991,Combined,Punjab,1,1,889,669
 288 - Government Girls Primary School Awan Wala,31.35689515314997,72.31149525165503,Combined,Punjab,1,1,788,670
 330 - Government Boys Primary School Chak No. 252/JB,31.357015719674227,72.64681430964977,Combined,Punjab,1,1,672,500
 327 - Government Girls Primary School Chak No. 251/JB- (Samoor),31.36049,72.62475,Combined,Punjab,1,1,434,318
 264 - Government Boys Middle School Chak No. 262/JB Kot Bharwana,31.3619,72.46594,Combined,Punjab,2,2,888,623
 326 - Government Boys Primary School Chak No. 251/JB (North),31.36242,72.62343,Combined,Punjab,1,1,405,282
 325 - Government Boys Primary School Chak No. 250/JB,31.36299,72.6454,Combined,Punjab,1,1,745,615
 314 - Government Boys Primary School Chak No. 168/JB,31.36389,72.57013,Combined,Punjab,1,1,729,542
 323 - Government Girls Primary School Chak No. 250/JB  (Ganjro),31.3644,72.68424,Combined,Punjab,1,1,660,460
 282 - Government Girls Primary School Chotala,31.3647047559143,72.34313718351262,Combined,Punjab,1,1,746,552
 350 - Government Boys Primary School Chak No. 173/JB,31.365162787290608,72.5175325876609,Combined,Punjab,1,1,389,307
 284 - Government Boys High School Pakay Wala,31.36684,72.31782,Combined,Punjab,1,1,494,361
 285 - Government Boys High School Pakay Wala,31.36684,72.31785,Combined,Punjab,1,1,533,455
 276 - Government Girls Primary School Salamat Pura,31.36751,72.40079,Combined,Punjab,2,2,1070,838
 277 - Government Boys Elementary School Salamat Pura,31.36789,72.40044,Combined,Punjab,1,1,341,242
 275 - Government Boys Elementary School Salamat Pura,31.36796,72.40049,Combined,Punjab,1,1,651,505
 348 - Government Boys High School Chak No. 170/JB,31.37007,72.53036,Male,Punjab,2,0,833,0
 349 - Government Boys High School Chak No. 170/JB,31.37007,72.53039,Female,Punjab,0,2,0,721
 393 - Government Girls Primary School Sheikh Chuharh (Madina Colony),31.37058,72.4488,Combined,Punjab,2,2,762,637
 324 - Government Girls Primary School Chak No. 250/JB (Naanga),31.37243,72.64465,Combined,Punjab,1,1,498,336
 321 - Government Girls Primary School Chak No. 161/JB (Hassuana),31.37346,72.58727,Combined,Punjab,1,1,343,298
 345 - Government Boys Primary School Chak No. 160/JB,31.37598,72.6216,Combined,Punjab,1,1,625,563
 346 - Government Girls Primary School Chak No. 160/JB,31.37881,72.6216,Combined,Punjab,1,1,328,316
 280 - Government Boys Primary School Basti Kot Murad (Thatta Mala),31.383624302734543,72.34020441588001,Combined,Punjab,1,1,629,439
 320 - Government Boys Elementry School Chak No. 161/JB (Gunyana),31.38514,72.60968,Combined,Punjab,1,1,493,405
 347 - Government Girls Primary School Chak No. 166/JB (Dokka),31.38606,72.55496,Combined,Punjab,1,1,702,592
 302 - Government Boys Primary School Chak No. 167/JB,31.38618,72.53474,Combined,Punjab,2,2,977,811
 386 - Government Girls High School Mukhiana,31.38653,72.46204,Combined,Punjab,1,1,796,570
 385 - Government Girls High School Mukhiana,31.38654,72.46201,Combined,Punjab,2,2,838,675
 382 - Government Boys High School Mukhiana,31.38713,72.46009,Combined,Punjab,1,1,493,357
 383 - Government Boys High School Mukhiana,31.38713,72.46012,Combined,Punjab,1,1,572,358
 384 - Government Boys High School Mukhiana,31.38713,72.46015,Combined,Punjab,1,1,617,458
 283 - Government Girls Primary School Tube Well Araen (Nankana),31.388938686875196,72.32447928838437,Combined,Punjab,1,1,738,531
 312 - Government Girls Primary School Chak No. 164/JB (Joiya),31.39047,72.57961,Combined,Punjab,1,1,739,563
 319 - Government Boys High School Chak No. 159/JB,31.39303,72.62774,Combined,Punjab,1,1,739,591
 272 - Government Girls High School (High Portion) Shabbir Abad,31.39378,72.4094,Combined,Punjab,1,1,522,387
 273 - Government Girls High School (Primary Portion) Shabbir Abad,31.39379,72.40944,Combined,Punjab,1,1,739,543
 274 - Government Girls High School (Middle Portion) Shabbir Abad,31.39379,72.40947,Combined,Punjab,2,2,557,460
 322 - Government Boys Primary School Chak No. 162/JB,31.39857,72.60722,Combined,Punjab,1,1,589,386
 368 - Government Boys Middle School Bullu Shahbul,31.40046,72.37715,Combined,Punjab,2,2,887,738
 376 - Government Boys Middle School Bullu Shahabul,31.40046,72.37718,Combined,Punjab,1,1,522,366
 313 - Government Girls Primary School Chak No. 165/JB (Gandaywala),31.40738,72.55933,Combined,Punjab,2,1,959,699
 307 - Government Boys Primary School Chak No. 163/JB (Dubba),31.40829,72.61152,Female,Punjab,0,2,0,796
 306 - Government Girls Primary School Chak No. 163/JB (Dubba),31.41041,72.61741,Male,Punjab,2,0,928,0
 281 - Government Boys Primary School Korrian Wala,31.415460836929707,72.33989866025495,Combined,Punjab,1,1,691,560
 298 - Government Girls Primary School Chak No. 259/JB (Pattoana),31.41688,72.54914,Combined,Punjab,1,1,469,376
 305 - Government Boys Primary School Chak No. 261/JB (Kot Hamayoon),31.41842,72.53298,Combined,Punjab,2,2,1000,708
 308 - Government Girls Primary School Chak No. 231/JB,31.42179,72.6001,Combined,Punjab,1,1,776,644
 304 - Government Boys Primary School Chak No. 260/JB,31.42441,72.52821,Combined,Punjab,1,1,660,393
 396 - Government Boys High School Sultan Pur,31.42871,72.41675,Combined,Punjab,1,1,564,446
 397 - Government Boys High School Sultan Pur,31.42872,72.41666,Combined,Punjab,1,1,939,621
 398 - Government Boys High School (Middle Portion) Sultan Pur (Permanent),31.42872,72.41669,Combined,Punjab,2,2,989,775
 299 - Government Girls Primary School Chak No. 259/JB (Abadi Heer da Ahatta),31.43114,72.5644,Combined,Punjab,1,1,519,337
 364 - Government Boys Primary School Dhano Wala,31.43208,72.34559,Combined,Punjab,1,1,543,359
 303 - Government Boys Primary School Chak No. 258/JB,31.43305,72.53111,Combined,Punjab,1,1,352,311
 310 - Government Girls High School Chak No. 232/JB,31.43374,72.59377,Male,Punjab,2,0,958,0
 311 - Government Girls High School Chak No. 232/JB,31.43374,72.5938,Female,Punjab,0,2,0,728
 309 - Government Boys Primary School Chak No. 232/JB (Khas),31.43614,72.58725,Combined,Punjab,1,1,490,427
 387 - Government Boys High School Satiana,31.43694,72.48669,Combined,Punjab,2,2,1118,781
 388 - Government Boys High School - Satiana,31.43702,72.48665,Combined,Punjab,1,1,599,524
 363 - Government Girls Primary School Bindi Baig Mahni,31.44651,72.38151,Combined,Punjab,1,1,809,499
 294 - Government Boys Primary School Chak No. 230/JB,31.45012,72.60802,Combined,Punjab,1,1,378,280
 373 - Government Girls High School Bullo Shahbul,31.45303,72.46372,Male,Punjab,2,0,959,0
 374 - Government Girls High School Bullo Shahbul,31.45303,72.46375,Female,Punjab,0,2,0,780
 377 - Government Girls High School Khewa,31.45558,72.46776,Combined,Punjab,1,1,793,526
 378 - Government Girls High School Khewa,31.45558,72.46779,Combined,Punjab,1,1,783,655
 379 - Government Girls High School Khewa,31.45558,72.46782,Combined,Punjab,1,1,432,281
 380 - Government Boys Primary School Khewa,31.45585,72.46796,Combined,Punjab,1,1,432,258
 293 - Government Girls Primary School Chak No. 230/JB (Sheikhana),31.45619,72.60609,Combined,Punjab,1,1,681,601
 390 - Government Boys Primary School Nikka Doultana,31.45865,72.50453,Combined,Punjab,1,1,763,652
 389 - Government Girls Middle School Nikka Doultana,31.45942,72.50105,Combined,Punjab,1,1,550,357
 297 - Government Girls Middle School Chak No. 257/JB,31.46221,72.54737,Combined,Punjab,1,1,811,675
 295 - Government Girls Primary School Chak No. 233/JB (Hasnana),31.46636,72.59383,Combined,Punjab,1,1,528,397
 381 - Allama Iqbal Feeder School- Abadi Sahmal,31.46705,72.39497,Combined,Punjab,1,1,512,374
 296 - Government Boys Primary School Chak No. 233/JB,31.46978,72.59457,Combined,Punjab,1,1,435,367
 369 - Government Boys High School Khanoana,31.47231,72.49557,Combined,Punjab,1,1,611,473
 370 - Government Boys High School Khanoana,31.47231,72.4956,Combined,Punjab,1,1,554,387
 372 - Government Boys High School Khorara Baqir,31.47239,72.49405,Combined,Punjab,2,2,1115,798
 300 - Government Girls Primary School Chak No. 464/JB (Jorriwala),31.4727,72.51731,Combined,Punjab,1,1,549,413
 371 - Government Girls Primary School Khanoana,31.47272,72.51726,Combined,Punjab,2,2,926,784
 301 - Government Boys Primary School Chak No. 464/JB (Mehranwala),31.47651915767087,72.52253958995233,Combined,Punjab,1,1,739,498
 375 - Government Boys Middle School (Primary Portion) Khorara Baqir,31.492807533513968,72.44791176367899,Combined,Punjab,1,1,594,440
 365 - Government Boys Primary School Bhochra,31.50188,72.4998,Combined,Punjab,1,1,444,283
 366 - Government Girls Elementary School Bhochra,31.50222,72.50034,Combined,Punjab,1,1,626,472
 367 - Government Girls Primary School Jindiana,31.51245,72.46656,Combined,Punjab,1,1,564,418
