PollingStation,Lat,Lng,BoothType,Province,MaleBooths,FemaleBooths,MaleVoters,FemaleVoters
 311 - Govt.Girls Primary School Arif Baloch,-7.013678,32.81249,Combined,Punjab,2,1,939,582
 125 - Govt. Girls Primary School Basti  Mian Khurshid Ali (Male),0,0,Male,Punjab,2,0,1252,0
 131 - Govt. Girls Primary School Uttera,0,3E-05,Combined,Punjab,2,1,920,488
 320 - Veterinary Hospital Hayat Laar,28.76278,70.81334,Combined,Punjab,2,1,794,606
 321 - Veterinary Hospital Hayat Laar,28.76278,70.81337,Combined,Punjab,1,1,670,481
 322 - Govt. Boys Primary School Feroza Town,28.76417,70.81056,Combined,Punjab,1,1,724,551
 318 - Govt.Girls Primary School Bhuto Colony Feroza(Hayat Lar).   (Male),28.7725,70.81694,Male,Punjab,3,0,1478,0
 319 - Govt.Girls Primary School Bhuto Colony Feroza(Hayat Lar).  (Female),28.7725,70.81697,Female,Punjab,0,2,0,1093
 312 - Govt. Girls Community Model School- Chak No. 123/NP,28.78472,70.78917,Combined,Punjab,1,1,543,348
 313 - Govt. Girls Community Model School- Chak No. 123/NP,28.78472,70.7892,Combined,Punjab,2,1,756,527
 315 - Govt.Boys Primary School Chak No. 122/NP,28.78778,70.78972,Combined,Punjab,1,1,728,517
 310 - Govt. Boys Primary School Hussain Abad Basti Shair Muhammad Mouza Ghareeb Shah,28.80167,70.72817,Combined,Punjab,2,1,1047,630
 317 - Govt. Girls Primary School Jam Aziz,28.81695,70.78139,Combined,Punjab,2,1,1118,732
 309 - Govt. Moadib Primary School Thair Fazil Muhammad,28.82026,70.74231,Combined,Punjab,2,2,1190,803
 302 - Govt. Girls Elementary School Kandani (Female),28.82253,70.76467,Female,Punjab,0,2,0,998
 303 - Govt. Girls Elementary School- Kandani (Male),28.82253,70.7647,Male,Punjab,3,0,1414,0
 305 - Govt. Boys High School Kandani High Portion (Female),28.82602,70.76302,Female,Punjab,0,2,0,1015
 308 - Govt. Boys Secondary School Basti Nazir Khan (Chak No.119/NP),28.83441,70.72115,Combined,Punjab,1,1,562,390
 186 - Govt. Girls Primary School Said Pur,28.83476,70.68201,Combined,Punjab,1,1,658,469
 300 - Govt. Boys Primary School Basti Samanay Khan,28.83559,70.73615,Combined,Punjab,2,2,874,653
 286 - Govt. Boys Primary School Haroon Abad,28.84389,70.86444,Combined,Punjab,1,1,593,478
 304 - Govt. Boys P/S Basti Sunat Abad (Male),28.84461,70.81173,Male,Punjab,3,0,1363,0
 314 - Govt.Girls Elementary School Chak No. 125/NP,28.84497,70.80737,Combined,Punjab,2,1,950,571
 306 - Govt. Rafique Elementary School Jageer Chhanaili,28.85194,70.85166,Combined,Punjab,2,2,890,653
 301 - Govt. Boys Primary School Malik Hameed Basti Jurani,28.85611,70.75806,Combined,Punjab,2,1,871,646
 298 - Govt. Boys High School Pacca Laaran Primary Portion (Male),28.85917,70.78167,Male,Punjab,3,0,1744,0
 299 - Govt. Boys High School Pacca Laaran Middle Portion (Female),28.85917,70.7817,Female,Punjab,0,2,0,1350
 323 - Govt. Girls Primary School Basti Araian- Rasheed Abad,28.86222,70.83194,Combined,Punjab,2,1,923,545
 295 - Govt. Girls E/School Basti Lal Pacca Laaran,28.86361,70.76917,Combined,Punjab,2,1,838,602
 296 - Govt. Girls High School Pacca Laaran High Portion (Male),28.86513,70.75216,Male,Punjab,3,0,1578,0
 297 - Govt. Girls High School Pacca Laaran Middle Portion (Female),28.86513,70.75219,Female,Punjab,0,2,0,1239
 288 - Govt. Boys Primary School Basti Maghrani (Male),28.86834,70.75279,Male,Punjab,2,0,1230,0
 289 - Govt. Boys Primary School Basti Maghrani (Female),28.86834,70.75282,Female,Punjab,0,2,0,994
 137 - Govt. Boys Primary School Bahan Wala (Female),28.86972,70.84722,Female,Punjab,0,2,0,1140
 138 - Govt. Boys Primary School Bahan Wala (Male),28.86972,70.84725,Male,Punjab,3,0,1511,0
 195 - Govt. Boys Elementary School Noor Muhammad Batwani (Male),28.87027,70.74109,Male,Punjab,3,0,1419,0
 181 - Govt. Girls Model School Shehbaz Pur Gharbi,28.87597,70.62893,Combined,Punjab,2,1,1075,773
 136 - Govt. Girls Primary School- Chiragh Hussain Shah,28.87667,70.85083,Combined,Punjab,2,2,1018,780
 185 - Govt. Boys High School Said Pur,28.8772,70.68675,Combined,Punjab,2,1,919,691
 134 - Govt. Boys High School Talbani (Male),28.88194,70.82305,Male,Punjab,2,0,1408,0
 135 - Govt. Boys High School Talbani (Female),28.88194,70.82308,Female,Punjab,0,2,0,1051
 139 - Govt. Boys High School Metla,28.8825,70.87056,Combined,Punjab,2,1,1096,699
 128 - Govt. Girls Primary School Shamasabad Bangla Talbani,28.88333,70.82361,Combined,Punjab,1,1,670,481
 126 - Govt. Girls Primary School Basti  Mian Khurshid Ali (Female),28.88472,70.89722,Female,Punjab,0,2,0,943
 283 - Govt. Boys Elementary School Nalla Mosani (Male),28.887,70.76964,Male,Punjab,2,0,1263,0
 284 - Govt. Girls Primary School Nalla Mosani (Female),28.88712,70.7692,Female,Punjab,0,2,0,991
 161 - Govt. Boys High School Zafarabad (Male),28.88783,70.65331,Male,Punjab,2,0,1240,0
 163 - Govt. Boys High School- Zafar Abad (Male),28.88783,70.65334,Male,Punjab,3,0,1608,0
 196 - Govt. Boys Primary School Ashraf Shah Basti Ramzan (Female),28.88919,70.71974,Female,Punjab,0,2,0,984
 287 - Govt. Boys Primary School Kotla Daulat,28.89055,70.74818,Combined,Punjab,1,1,755,545
 184 - Govt. Girls Elementary School  Taranda Mir Khan,28.89078,70.68118,Combined,Punjab,2,1,910,727
 183 - Govt. Boys Elementary School Taranda Mir Khan,28.89083,70.67962,Combined,Punjab,2,1,773,536
 194 - Govt. Boys Primary School Basti Qazian,28.89452,70.75202,Combined,Punjab,2,1,1058,729
 162 - Govt. Girls Community Model School Zafarabad (Female),28.89537,70.6583,Female,Punjab,0,2,0,845
 164 - Govt. Girls Community Model School Zafarabad (Female),28.89537,70.65833,Female,Punjab,0,3,0,1169
 165 - Govt. Boys Primary School Basti Malik Peer Bux Tibbi Saidan (Male),28.89537,70.65836,Male,Punjab,3,0,1344,0
 166 - Govt. Boys Primary School Basti Malik Peer Bux Tibbi Saidan (Female),28.89537,70.65839,Female,Punjab,0,2,0,823
 182 - Govt. Boys Primary School Saeedia (Kalay Di Wasti),28.89583,70.65904,Combined,Punjab,1,1,526,303
 127 - Govt. Boys Primary School Shamasabad,28.89861,70.82916,Combined,Punjab,1,1,624,429
 290 - Govt. Girls Primary School Basti Gasoora (Male),28.90346,70.78145,Male,Punjab,3,0,1468,0
 291 - Govt. Girls Primary School Basti Gasoora (Female),28.90346,70.78148,Female,Punjab,0,2,0,996
 316 - Govt. Boys Primary School Chak No. 116/NP,28.9039,70.67664,Combined,Punjab,1,1,382,222
 193 - Govt. Boys Primary School Gabran,28.90495,70.70831,Combined,Punjab,2,1,801,537
 192 - Govt. Girls Primary School Aziz Muhammad Numberdar Mouza Chanjni (Female),28.90825,70.68295,Female,Punjab,0,2,0,941
 281 - Govt. Girls Primary School Ramzan Khan (Jong Bilawal),28.91187,70.78869,Combined,Punjab,1,1,724,532
 123 - Govt. Girls Primary School Basti  Jam Khuda Bux Laar Goth Mahi (Female),28.91257,70.88235,Female,Punjab,0,2,0,949
 190 - Govt. Girls Primary School Malik Bakhat Ali,28.91543,70.7128,Combined,Punjab,2,1,805,475
 294 - Govt. Girls Primary School Basti Kotla Niazi,28.91777,70.77484,Combined,Punjab,1,1,715,548
 282 - Govt. Boys Primary School Jong Bilawal,28.91822,70.78912,Combined,Punjab,2,1,842,631
 124 - Basic Health Unit Goth Mahi Basti  Mian Karam,28.92021,70.9004,Combined,Punjab,2,1,734,623
 121 - Govt. Boys Primary School Farzand Ali Basti  Mian Karam (Female),28.92039,70.90348,Female,Punjab,0,2,0,1267
 191 - Govt. Boys Primary School Pati Shair Muhammad  (Male),28.92223,70.69655,Male,Punjab,2,0,1231,0
 7 - Govt. Girls Primary School- Meharabad- LQP,28.92376,70.9409,Combined,Punjab,2,2,1296,1038
 132 - Govt. Boys Primary School Pakhiwar (Female),28.92639,70.81223,Female,Punjab,0,2,0,899
 133 - Govt. Boys Primary School Pakhiwar (Male),28.92639,70.81226,Male,Punjab,2,0,1350,0
 169 - Govt. Boys Elementary School Bahar Khakhi (Primary Portion),28.92725,70.70068,Combined,Punjab,2,1,1052,704
 152 - Govt. Boys Primary School Sanghar,28.92761,70.60861,Combined,Punjab,2,1,913,615
 160 - Govt. Girls Primary School Malook Shah Basti Muhammad Ramzan Arain,28.92917,70.66972,Combined,Punjab,2,2,924,741
 16 - Govt.Post Graduate College For Women Liaquatpur (Female),28.92957,70.94678,Female,Punjab,0,2,0,1034
 292 - Govt. Boys High School Kotla Niazi (Male),28.93022,70.7653,Male,Punjab,2,0,1161,0
 293 - Govt. Boys High School Kotla Niazi (Female),28.93022,70.76533,Female,Punjab,0,2,0,927
 168 - Govt. Boys Moadib Primary School Bahar Khakhi,28.93107,70.69181,Combined,Punjab,2,2,788,553
 158 - Govt. Boys Primary School Bagh Arain (Basti Malook Shah),28.93139,70.66778,Combined,Punjab,2,1,752,395
 19 - Govt.Boys Model High School Liaquatpur (Male),28.93145,70.95402,Male,Punjab,2,0,1268,0
 18 - Govt. Girls Primary School Fauji Colony Near Masjid Khizra LQP (Female),28.93185,70.9583,Female,Punjab,0,2,0,1015
 55 - Govt. Boys Primary School Fakhar Abad Fazal Elahi Basti Shah Nawaz Near Qudratabad Khanbela,28.93188,70.94714,Combined,Punjab,1,1,670,514
 285 - Rural Health Center Haroon Abad (P)*,28.93305,70.95277,Combined,Punjab,2,1,782,592
 14 - Govt. Girls Primary School Rashidabad LQP,28.93325,70.95957,Combined,Punjab,2,1,711,572
 272 - Govt. Girls Primary School Chak No.47/A,28.93393,70.9544,Combined,Punjab,1,1,714,596
 269 - Govt. Girls Primary School Chak No.46/A,28.93398,70.96226,Combined,Punjab,1,1,601,463
 13 - Govt. Girls High School Muhajir Colony LQP,28.9344,70.9594,Combined,Punjab,2,2,1164,992
 17 - Govt. Girls High School Mohajir Colony LQP,28.9344,70.95943,Combined,Punjab,2,2,1150,823
 277 - Govt. Girls H/S Amin Abad (Female),28.93498,70.80283,Female,Punjab,0,2,0,1344
 11 - Govt. Girls Model High school Liaquatpur (Male),28.93569,70.95201,Male,Punjab,3,0,1174,0
 12 - Govt. Girls Model High School LQP (Female),28.93569,70.95204,Female,Punjab,0,3,0,1160
 15 - Govt. Girls Model High School LQP (Male),28.93569,70.95207,Male,Punjab,2,0,1066,0
 274 - Govt. Boys High School Amin Abad (Male),28.93588,70.79892,Male,Punjab,3,0,1533,0
 275 - Govt. Boys High School Amin Abad (Female),28.93588,70.79895,Female,Punjab,0,2,0,1127
 187 - Govt. Boys Primary School Jam Ghulam Muhammad Bali (Male),28.93634,70.72926,Male,Punjab,2,0,1240,0
 188 - Govt. Boys Primary School Jam Ghulam Muhammad Bali (Female),28.93634,70.72929,Female,Punjab,0,2,0,961
 101 - Govt. Girls Primary School Basti Ghulam Muhammad (Goth Amin),28.9371,70.95338,Combined,Punjab,2,1,873,599
 122 - Basic Health Unit Goth Mahi Basti  Mian Karam (Male),28.93767,70.9111,Male,Punjab,3,0,1242,0
 8 - Govt. Boys Degree College- LQP,28.93791,70.95457,Combined,Punjab,2,1,555,432
 10 - Govt. Girls Primary School Ghausia Colony LQP,28.93823,70.95255,Combined,Punjab,2,2,1144,1014
 167 - Govt. Girls Elementary School Bahar Khakhi,28.93895,70.71293,Combined,Punjab,2,1,871,570
 9 - Govt. Girls Primary School- Hakimabad- LQP,28.93939,70.95501,Combined,Punjab,2,2,1061,778
 189 - Govt. Boys Primary School Chanjni,28.93944,70.71342,Combined,Punjab,2,1,728,448
 2 - Office of the Municipal Officer Infrastructure Kachi Mandi Liaquatpur (Female),28.93975,70.94514,Female,Punjab,0,2,0,991
 3 - Govt. Boys High School- Kachi Mandi (Male),28.93975,70.94517,Male,Punjab,2,0,912,0
 4 - Govt. Boys High School- Kachi Mandi (Female),28.93975,70.9452,Female,Punjab,0,2,0,726
 1 - Office Of The Deputy Education Officer LQP (Male),28.93989,70.9449,Male,Punjab,2,0,1211,0
 151 - Govt. Boys Primary School Khan Muhammad,28.94053,70.598,Combined,Punjab,2,1,1216,731
 153 - Govt. Boys High School Malkani High Portion (Male),28.94256,70.63904,Male,Punjab,2,0,1132,0
 154 - Govt. Boys High School Malkani Middle Portion (Female),28.94256,70.63907,Female,Punjab,0,2,0,780
 156 - Govt. Boys High School Malkani,28.94333,70.63917,Combined,Punjab,2,1,950,615
 117 - Govt. Boys Primary School Raes Allah Ditta,28.94401,70.92379,Combined,Punjab,2,2,1203,925
 5 - Govt. Girls High School- Bus Stand Old Abadi Liaquatpur (Male),28.94468,70.94298,Male,Punjab,4,0,1705,0
 6 - Govt. Girls High School- Old Abadi- LQP (Female),28.94468,70.94301,Female,Punjab,0,4,0,1461
 155 - Govt. Girls Primary School (Shabir Abad) Malkani,28.94473,70.64154,Combined,Punjab,1,1,720,472
 65 - Govt. Boys Elementary School- Jalil Abad,28.94564,70.72942,Combined,Punjab,2,2,963,749
 276 - Govt. Girls Primary School Basti Sharif Awan (Male),28.94593,70.81,Male,Punjab,3,0,1803,0
 157 - Govt. Girls Primary School- Malkani,28.94635,70.63601,Combined,Punjab,2,1,787,440
 66 - Govt. Boys Primary School Waheedabad  (Male),28.94717,70.75272,Male,Punjab,2,0,1284,0
 108 - Canal Sub-Division Office- Allah Abad,28.94845,70.87364,Combined,Punjab,1,1,807,644
 278 - Rural Health Center Amin Abad,28.94867,70.87461,Combined,Punjab,2,1,859,564
 279 - Govt. Boys Primary School Goth Hayat (Male),28.9489,70.86903,Male,Punjab,2,0,1183,0
 280 - GGPS GOTH HAYAT (Female),28.9489,70.86906,Female,Punjab,0,2,0,796
 67 - Govt. Girls Primary School Lakhani (Female),28.94891,70.75339,Female,Punjab,0,2,0,997
 130 - Govt. Boys Moadib School Jumma Mohana (Female),28.94972,70.87334,Female,Punjab,0,2,0,1129
 104 - Govt. Boys Primary School Raes Pathan,28.95007,70.87461,Combined,Punjab,2,1,761,602
 109 - Govt. Girls Primary School Raes Pathan,28.95007,70.87464,Combined,Punjab,1,1,550,374
 106 - Govt. Boys High School Allah Abad Middle Portion,28.9515,70.8822,Combined,Punjab,1,1,703,629
 105 - Govt. Boys High School Allah Abad High Portion,28.95167,70.88216,Combined,Punjab,1,1,532,495
 112 - Govt. Girls High School Allah Abad  (Female),28.95176,70.88118,Female,Punjab,0,2,0,1067
 111 - Govt. Girls High School Allah Abad  (Male),28.95177,70.88118,Male,Punjab,2,0,1238,0
 107 - Govt. Boys Primary School Block-1 Allah Abad,28.95235,70.87827,Combined,Punjab,1,1,718,608
 100 - Govt. Boys Primary School Basti Ghulam Muhammad  (Goth Amin),28.95325,70.94409,Combined,Punjab,1,1,732,594
 268 - Govt. Girls Primary School Chak No.25/A,28.95444,70.99166,Combined,Punjab,2,1,802,620
 273 - Govt. Boys Primary School Moori 56000 Mouza Doda Naich,28.95463,70.77227,Combined,Punjab,2,2,1039,780
 102 - Govt. Boys Elementary School wahid Bakhsh Siyal,28.95515,70.89819,Combined,Punjab,2,2,939,749
 171 - Govt. Girls E/S Shedani Sharif (Female),28.95611,70.68417,Female,Punjab,0,3,0,1539
 173 - Govt. Girls E/S Shedani Sharif (Female),28.95611,70.6842,Female,Punjab,0,2,0,1157
 265 - Govt. Girls Primary School Chak No.17/A (Male),28.95667,70.97417,Male,Punjab,2,0,1204,0
 266 - Govt. Girls Primary School Chak No.17/A (Female),28.95667,70.9742,Female,Punjab,0,2,0,916
 110 - Govt. Girls Primary School Basti Qurban Qasaab,28.95876,70.87548,Combined,Punjab,1,1,668,500
 147 - Govt. Boys Primary School Bhapla Kacha,28.96007,70.63393,Combined,Punjab,2,1,1071,648
 178 - Govt. Boys Primary School Abbas Nagar,28.96081,70.7238,Combined,Punjab,2,1,982,711
 177 - Govt.Girls Elementary School Abbas Nagar,28.96129,70.72397,Combined,Punjab,2,2,1093,762
 63 - Govt. Girls Higher Secondary School Khanbela New Portion,28.96197,70.73706,Combined,Punjab,2,1,797,637
 270 - Govt. Boys High School Chak No. 50/A (Male),28.96222,71.02361,Male,Punjab,2,0,1226,0
 271 - Govt. Boys High School Chak No. 50/A (Female),28.96222,71.02364,Female,Punjab,0,2,0,958
 59 - Govt. Boys Higher Secondary School Khanbela High Portion (Male),28.96246,70.73672,Male,Punjab,2,0,1296,0
 60 - Govt. Boys Higher Secondary School Khanbela High Portion (Female),28.96246,70.73675,Female,Punjab,0,2,0,1060
 57 - Govt. Boys Higher Secondary School Khanbela Middle Portion,28.96249,70.7347,Combined,Punjab,1,1,745,573
 64 - Govt. Boys higher Secondary School Khan Bella (Primary Portion),28.96249,70.73473,Combined,Punjab,2,2,1097,884
 170 - Govt. Boys High School Shedani Sharif (Male),28.96306,70.73778,Male,Punjab,4,0,2062,0
 172 - Govt. Boys High School Shedani Sharif Middle Portion (Male),28.96306,70.73781,Male,Punjab,3,0,1664,0
 103 - Govt. Boys P/S Mehmood Nagar Mouza Wahid Bakhsh Siyal,28.96659,70.89043,Combined,Punjab,2,1,861,665
 267 - Govt Girls Primary School Chak No.27/A,28.96722,71.01833,Combined,Punjab,1,1,716,568
 71 - Govt. Boys Primary School Qaduwali,28.96809,70.80587,Combined,Punjab,2,1,806,609
 180 - Govt.  Girls P/S Basti Allah Jewaya Laar (Female),28.96874,70.70848,Female,Punjab,0,3,0,1434
 179 - Govt. Boys Primary School Basti Allah Jewaya Laar (Male),28.96976,70.71024,Male,Punjab,4,0,1944,0
 72 - Govt. Boys High School Habibabad,28.9698,70.78362,Combined,Punjab,1,1,613,504
 118 - Govt. Boys Elementary School Muhammad Daha,28.97019,70.91172,Combined,Punjab,2,2,976,803
 119 - Basic Health Center Muhammad Daha,28.97053,70.9122,Combined,Punjab,2,1,824,658
 120 - Govt. Boys Primary School Basti Arain Goth Mahi (Male),28.97053,70.91223,Male,Punjab,3,0,1572,0
 61 - Govt. Girls Higher Secondary School Khanbela Old Portion (Male),28.97065,70.74224,Male,Punjab,2,0,1145,0
 62 - Govt. Girls Higher Secondary School Khanbela Old Portion (Female),28.97065,70.74227,Female,Punjab,0,2,0,902
 58 - Govt. Girls Primary School Raes Pir Bakhsh,28.9717,70.74345,Combined,Punjab,1,1,634,553
 159 - Govt. Girls Primary School Basti Abdul Karim Tumrani,28.97361,70.67305,Combined,Punjab,2,1,776,485
 264 - Govt. Girls High School Chak No.14/A,28.975,71.00528,Combined,Punjab,2,1,822,618
 263 - Govt. Boys Primary School Chak No.12/A,28.97611,71.01305,Combined,Punjab,2,1,1061,768
 56 - Govt. Boys Primary School Metla,28.97652,70.7469,Combined,Punjab,2,2,957,721
 149 - Govt. Girls Model Primary School Allah Wasaya Shah (Female),28.97792,70.63499,Female,Punjab,0,2,0,1023
 150 - Govt. Boys P/S Allah Wasaya Shah,28.9781,70.63447,Combined,Punjab,1,1,656,433
 68 - Govt. Girls Elementary School Abdul Haq Siyal,28.97856,70.75273,Combined,Punjab,2,1,855,655
 116 - Govt. Girls Primary School Noor Ahmad Bumbh  Mouza Murad Pur Siyal (Female),28.97857,70.949,Female,Punjab,0,2,0,809
 175 - Govt. Boys Primary School Khanqa Muhammad Shah Mouza Allah Ditta Bhela,28.98049,70.73534,Combined,Punjab,2,2,1204,844
 96 - Community Girls Elementary School Rindan Mauza Rindan  (Male),28.98191,70.82471,Male,Punjab,2,0,1269,0
 97 - Community Girls Elementary School Rindan Mauza Rindan  (Female),28.98191,70.82474,Female,Punjab,0,2,0,1038
 176 - Govt. Girls Primary School Allah Ditta Bhela,28.98217,70.70679,Combined,Punjab,1,1,735,520
 174 - Govt. Boys Primary School Kotla Mubarak,28.9837,70.69301,Combined,Punjab,2,1,1029,697
 148 - Govt. Boys E/S Lal Shah Basti Riaz Hussain Shah (Male),28.98462,70.66429,Male,Punjab,3,0,1521,0
 73 - Govt. Girls Primary School- Pararan Sharif (Male),28.98604,70.81258,Male,Punjab,2,0,1382,0
 74 - Govt. Girls Primary School- Pararan Sharif (Female),28.98604,70.81261,Female,Punjab,0,2,0,1042
 70 - Govt. Boys Primary School Dera Jattan,28.98776,70.76506,Combined,Punjab,2,2,1339,1034
 262 - Govt. Girls Primary School Chak No.4/A Basti Bari,28.99139,70.9725,Combined,Punjab,2,2,1049,913
 307 - Govt. Boys Primary School Chak No.132/NP,28.99187,70.77402,Combined,Punjab,2,1,682,521
 75 - Govt. Boys Primary School Kotla Nawab,28.99187,70.77405,Combined,Punjab,2,2,1082,761
 76 - Govt. Girls Primary School Kotla Nawab (Male),28.99187,70.77408,Male,Punjab,3,0,1465,0
 77 - Govt. Girls Primary School Kotla Nawab (Female),28.99187,70.77411,Female,Punjab,0,2,0,978
 115 - Govt. Boys High School Murad Pur Siyal High Portion (Male),28.99818,70.97086,Male,Punjab,2,0,910,0
 244 - Govt. Boys Primary School Ahmed Yar Tanwari,28.99894,70.9234,Combined,Punjab,2,1,763,581
 113 - Govt. Boys Primary School Bapran (Male),28.99934,70.89108,Male,Punjab,3,0,1464,0
 245 - Govt. Girls Primary School Ahmed Yar Tanwari,28.99998,70.9228,Combined,Punjab,1,1,733,676
 114 - Govt. Boys Primary School Bapran (Female),29.0009,70.89709,Female,Punjab,0,2,0,1094
 254 - Govt. Girls Primary School Chak No. 9/A,29.001418861582835,70.99357804235176,Combined,Punjab,1,1,592,504
 143 - Govt. Girls Elementary School Ahmed Ali Laar,29.00142,70.65723,Combined,Punjab,1,1,730,671
 142 - Govt. Boys Primary School Mud Lal,29.00179,70.62991,Combined,Punjab,1,1,554,361
 144 - Govt. Boys Primary School Ahmed Ali Laar Basti Deen Muhammad,29.00376,70.65611,Combined,Punjab,1,1,758,524
 145 - Govt. Boys Primary School Bahadur Khan  (Male),29.00447,70.6833,Male,Punjab,2,0,1263,0
 146 - Govt. Boys Primary School Bahadur Khan  (Female),29.00447,70.68333,Female,Punjab,0,2,0,946
 243 - Govt. Boys Elementary School Mustafa Abad,29.00931,70.90935,Combined,Punjab,2,1,878,590
 52 - Govt.Girls Primary School Dufli Kabir Khan,29.00989,70.7564,Combined,Punjab,2,2,1095,803
 69 - Govt. Boys High School Majeedabad,29.01002,70.79549,Combined,Punjab,2,1,719,615
 51 - Govt. Boys Primary School Dufli Kabir Khan,29.01056,70.7549,Combined,Punjab,2,1,1025,716
 91 - Basic Health Center Janpur,29.01278,70.81639,Combined,Punjab,1,1,736,602
 33 - Govt. Boys High School Umar Wada Dashti (Male),29.01434,70.80197,Male,Punjab,2,0,1311,0
 242 - Govt. Boys Primary School Chapri Chattan Shah,29.01443,70.88431,Combined,Punjab,1,1,679,566
 90 - Veterinary Dispensary Jun Pur.,29.01722,70.82139,Combined,Punjab,1,1,615,515
 140 - Govt. Boys Elementary School  Chauhan (Male)  / Shahid Abad,29.01802,70.69277,Male,Punjab,3,0,1697,0
 141 - Govt. Boys Elementary School Chauhan (Female) /Shahid Abad,29.01802,70.6928,Female,Punjab,0,2,0,1291
 92 - Govt. Boys High School Janpur High Portion (Male),29.02111,70.81612,Male,Punjab,3,0,1572,0
 93 - Govt. Boys High School Janpur Middle Portion (Female),29.02111,70.81615,Female,Punjab,0,2,0,1205
 87 - Govt. Boys High School Jan Pur (Male),29.0225,70.81612,Male,Punjab,3,0,1772,0
 88 - Govt.Boys High School   (Primary Portion) Janpur (Female),29.0225,70.81615,Female,Punjab,0,3,0,1353
 249 - Govt. Boys Primary School Kooki Wala Basti Jam Rahim Bakhsh Laar,29.0259,70.96718,Combined,Punjab,2,2,984,793
 86 - Govt. Boys Primary School Qazi Ghulam Nabi,29.02944,70.805,Combined,Punjab,1,1,650,475
 250 - Govt. Boys Primary School Kotla Khairay Khan,29.02974,70.9358,Combined,Punjab,2,2,1099,785
 54 - Govt. Girls Primary School Noor Pur Gachal (Female),29.0307,70.7226,Female,Punjab,0,2,0,1087
 53 - Govt. Boys Primary School Noor Pur Gachal (Male),29.0313,70.72162,Male,Punjab,3,0,1331,0
 253 - Govt. Boys Primary School Chak No.11/A,29.03139,70.98334,Combined,Punjab,1,1,521,419
 85 - Govt. Model Primary School Azizpur Chandar Wali,29.03417,70.82667,Combined,Punjab,2,2,949,776
 257 - Govt. Boys High School Chak No.10/A (Male),29.03555,71.01889,Male,Punjab,2,0,1017,0
 258 - Govt. Boys High School Chak No.10/A (Female),29.03555,71.01892,Female,Punjab,0,2,0,812
 44 - Govt. Boys Primary School Awais Nagar (Bait Dewan) (Male),29.03968,70.70827,Male,Punjab,3,0,1461,0
 45 - Govt. Boys Primary School Awais Nagar (Bait Dewan) (Female),29.03968,70.7083,Female,Punjab,0,2,0,1222
 260 - Govt. Boys Primary School Chak No.3/A,29.04028,70.99361,Combined,Punjab,1,1,752,640
 47 - Basic Health Center Unran (Male),29.04084,70.72839,Male,Punjab,2,0,1343,0
 48 - Basic Health Center Unran (Female),29.04084,70.72842,Female,Punjab,0,2,0,942
 50 - Govt. Boys Secondary School Unran Sharif,29.04276,70.72854,Combined,Punjab,2,1,781,549
 32 - Govt. Boys High School Umar Wada Dashti,29.044733250564192,70.79967915499283,Combined,Punjab,2,1,845,495
 49 - Govt. Boys Primary School Umar Wada Gachal,29.04512,70.75574,Combined,Punjab,1,1,590,451
 79 - Govt. Boys Primary School Malik Pur (Male),29.04778,70.84361,Male,Punjab,3,0,1426,0
 83 - Govt. Boys Primary School Laon Wala (Male),29.05265,70.85603,Male,Punjab,3,0,1379,0
 84 - Govt. Boys Primary School Laon Wala (Female),29.05265,70.85606,Female,Punjab,0,2,0,976
 35 - Govt. Girls Primary School Fazilpur Darbar Bukhari,29.05324,70.81904,Combined,Punjab,2,2,1070,631
 36 - Govt. Masjid Maktab School Subhan Khan,29.05324,70.81907,Combined,Punjab,2,1,838,531
 223 - Govt. Girls Primary School Basti Ghulam Yaseen Ghazipur,29.05565,70.90186,Combined,Punjab,1,1,699,553
 80 - Govt. Boys Primary School Dur Muhammad Chandia Malik Pur (Female),29.05639,70.83833,Female,Punjab,0,2,0,1117
 89 - Union Council Office Janpur,29.05639,70.83836,Combined,Punjab,1,1,437,341
 40 - Govt. Boys Primary School Umar Wadda Darigh,29.05868,70.76568,Combined,Punjab,1,1,674,463
 41 - Govt. Boys High School Jhoke Gulab Shah,29.06016,70.75459,Combined,Punjab,2,1,861,612
 238 - Govt. Boys Elementary School Dharay Oat,29.06188,70.86092,Combined,Punjab,2,1,1135,920
 239 - Govt. Girls Primary School K.L.P. Road Dharay Oat,29.06188,70.86095,Combined,Punjab,2,1,772,632
 246 - Govt. Girls Primary School Chak No.142/NP (Male),29.06202,70.91999,Male,Punjab,2,0,1240,0
 247 - Govt. Girls Primary School Chak No.142/NP (Female),29.06202,70.92002,Female,Punjab,0,2,0,863
 248 - Govt. Boys Primary School Imam Bakhsh Qadeem,29.06227,70.94753,Combined,Punjab,2,1,795,667
 82 - Govt. Girls Elementary School Allah Bachaya Langah- Kotla Darigh,29.06254,70.86153,Combined,Punjab,1,1,744,466
 261 - Govt. Girls Primary School Chak No.6/A,29.06417,71.00667,Combined,Punjab,1,1,523,521
 46 - Govt. Boys Primary School Bait Pararan,29.06673,70.71086,Combined,Punjab,2,2,1178,851
 42 - Govt. Boys Primary School Basti Dewala,29.06981,70.74283,Combined,Punjab,1,1,601,450
 251 - Basic Health Unit Kanjki Wala (Male),29.07155,70.93639,Male,Punjab,3,0,1808,0
 28 - Canal Rest House Thul Hamza,29.07264,70.79255,Combined,Punjab,1,1,590,393
 34 - Govt. Boys Primary School Muhammad Bakhsh Darigh (Female),29.07264,70.79258,Female,Punjab,0,2,0,912
 39 - Govt. Boys Primary School Ashiq Muhammad Gabol,29.07286,70.77882,Combined,Punjab,1,1,525,384
 27 - Govt. Boys Primary School Thul Hamza,29.07561,70.79086,Combined,Punjab,1,1,602,454
 30 - Govt. Boys Primary School Basti Noor Muhammad Arain Miani Ichha,29.07573,70.85154,Combined,Punjab,2,1,1088,714
 31 - Govt. Boys Primary School Miani Ichha Basti Ghulam Akbar Ichha,29.07721,70.83294,Combined,Punjab,2,2,888,551
 29 - Govt. Boys Elementary School Thul Hamza,29.077819452311353,70.79094211861894,Combined,Punjab,2,2,1163,798
 26 - Govt. Girls High School Thul Hamza (Female),29.07785,70.79085,Female,Punjab,0,2,0,1022
 240 - Govt. Boys High School Taranda Gurgage,29.07799,70.92366,Combined,Punjab,1,1,569,479
 25 - Govt. Boys Elementary School Thul Hamza (Male),29.07807,70.78815,Male,Punjab,3,0,1477,0
 224 - Govt. Boys Primary School Dandon Oat (Male),29.07865,70.88326,Male,Punjab,2,0,1318,0
 225 - Govt. Boys Primary School Dandon Oat (Female),29.07865,70.88329,Female,Punjab,0,2,0,1045
 226 - Govt. Girls Community Model School Dandan Oat (Male),29.07865,70.88332,Male,Punjab,2,0,1238,0
 227 - Govt. Girls Community Model School Dandan Oat (Female),29.07865,70.88335,Female,Punjab,0,2,0,968
 235 - Govt. Girls E/S Kachi Muhamamd Khan (Male),29.07865,70.88338,Male,Punjab,3,0,1452,0
 236 - Govt. Girls E/S Kachi Muhamamd Khan (Female),29.07865,70.88341,Female,Punjab,0,2,0,1156
 237 - Govt. Boys High School Kachi Muhammad Khan,29.07865,70.88344,Combined,Punjab,2,1,820,660
 37 - Govt. Boys Primary School Bana Roya (Female),29.0788,70.76186,Female,Punjab,0,2,0,1106
 38 - Govt. Boys Primary School Bana Roya (Male),29.0788,70.76189,Male,Punjab,4,0,1386,0
 252 - Govt. Boys P/S Jhull Mouza Kanjki Wala (Female),29.07963,70.9368,Female,Punjab,0,3,0,1408
 241 - Govt. Girls Primary School Taranda Gurgage,29.08454,70.9216,Combined,Punjab,2,2,906,609
 259 - Govt. Boys Primary School Chak No.55/A,29.08833,71.0625,Combined,Punjab,1,1,617,480
 256 - Govt. Boys Primary School Chak No.52/A,29.08861,71.03167,Combined,Punjab,2,1,735,591
 222 - Govt. Girls Primary School Ghazipur,29.09021,70.90939,Combined,Punjab,2,1,885,659
 43 - Govt. Boys Primary School Bait Allah Wasaya,29.09238,70.72506,Combined,Punjab,2,1,874,640
 234 - Govt. Boys Primary School Sidhuwali (Basti Muhammad Murad Bhattar),29.09579,70.86029,Combined,Punjab,2,1,810,565
 220 - Office of the Project Manager near Rural Dispensary Ghazipur,29.09843,70.91302,Combined,Punjab,1,1,685,507
 221 - Govt. Boys P/S Ghazi Pur,29.09844,70.91291,Combined,Punjab,1,1,586,454
 229 - Govt. Boys  Secondary School Taranda Muhammad Pannah,29.09922,70.91207,Combined,Punjab,1,1,674,550
 230 - Govt. Boys  Secondary School Taranda Muhammad Pannah,29.09922,70.9121,Combined,Punjab,2,1,883,676
 228 - Govt. Girls Higher Secondary School Taranda Muhammad Pannah,29.09986,70.91043,Combined,Punjab,2,2,918,809
 21 - Govt. Girls Primary School- Bakhshu Bhattar (Male),29.10161,70.78937,Male,Punjab,2,0,1197,0
 217 - Govt. Girls Primary School Malik Mahiwal (Female),29.10299,70.90857,Female,Punjab,0,2,0,1260
 218 - Govt. Girls Primary School Aziz Abad Dhando (Female),29.10299,70.9086,Female,Punjab,0,2,0,834
 231 - Rural Health Unit Taranda Muhammad Pannah  (Male),29.10299,70.90863,Male,Punjab,3,0,1706,0
 232 - Rural Health Unit Taranda Muhammad Pannah  (Female),29.10299,70.90866,Female,Punjab,0,2,0,1417
 24 - Govt. Boys Primary School Bait Sui,29.11272,70.7584,Combined,Punjab,2,1,763,556
 216 - Govt. Boys Primary School Chowkiwan Sangla (Male),29.1152,70.9259,Male,Punjab,2,0,1371,0
 233 - Govt. Boys Primary School Sidhuwali,29.11523,70.86363,Combined,Punjab,2,1,788,556
 22 - Govt. Boys Primary School Mehmood Abad (Female),29.11794,70.7813,Female,Punjab,0,2,0,996
 204 - Govt. Boys Elementary School Tibbi Jhullan (Female),29.12162,70.81833,Female,Punjab,0,2,0,1059
 203 - Govt. Girls Primary School Tibbi Jhullan (Male),29.12231,70.81987,Male,Punjab,2,0,1292,0
 205 - Govt. Girls Primary School Bait Murad Afzal Langah (Male),29.1318,70.83974,Male,Punjab,2,0,1374,0
 206 - Govt. Girls Primary School Bait Murad Afzal Langah (Female),29.13182,70.83976,Female,Punjab,0,2,0,1148
 219 - Govt. Boys Primary School Aziz Abad Dhando (Male),29.14248,70.92992,Male,Punjab,2,0,1050,0
 207 - Govt. Girls Primary School Shehbaz Pur Sharqi Alloudin Daya,29.1452,70.84646,Combined,Punjab,1,1,647,483
 215 - Basic Health Unit Shehbaz Pur East,29.1452,70.84649,Combined,Punjab,2,1,746,609
 200 - Govt. Boys Primary School Basti Rasool Bakhsh Dona,29.15444,70.85056,Combined,Punjab,1,1,643,547
 201 - Govt. Girls Primary School Basti Rasool Bakhsh Dona,29.15444,70.85083,Combined,Punjab,1,1,533,438
 208 - Govt. Boys Primary School- Bait Imam Bux Machhi,29.16424,70.78266,Combined,Punjab,2,1,860,665
 212 - Govt. Boys Primary School Noor Wala,29.16889,70.89889,Combined,Punjab,2,2,1007,876
 211 - Govt. Girls Elementary School Noor Wala,29.16917,70.89944,Combined,Punjab,2,1,903,702
 199 - Govt. Boys Primary School Bait Bhutto,29.17389,70.84917,Combined,Punjab,1,1,656,505
 202 - Govt. Boys Primary School Hayat Machi Basti Allah Bux,29.17555,70.88833,Combined,Punjab,2,1,745,590
 213 - Govt. Boys Primary School Tayyab Baloch,29.18194,70.92056,Combined,Punjab,2,2,1142,911
 198 - Govt. Boys Primary School Bait Aheer (Female),29.183563308239428,70.78557772151778,Female,Punjab,0,2,0,868
 197 - Govt. Boys Primary School Bait Aheer (Male),29.18361,70.78555,Male,Punjab,2,0,1006,0
 209 - Govt. Boys Primary School Ghafoorabad (Male),29.20139,70.87528,Male,Punjab,2,0,1356,0
 210 - Govt. Boys Primary School Ghafoorabad (Female),29.20139,70.87531,Female,Punjab,0,2,0,1117
