PollingStation,Lat,Lng,BoothType,Province,MaleBooths,FemaleBooths,MaleVoters,FemaleVoters
 135 - Govt: Middle Primary School Ghawar Kalay (Male),34.392772495601115,71.82160571044551,Male,KPK,4,0,1558,0
 40 - Govt. Degree College Badraga (Female),34.394,71.84392,Female,KPK,0,3,0,949
 41 - Govt. Primary School Khushal Garh (Male),34.39534,71.87206,Male,KPK,4,0,1252,0
 136 - Govt:Girls Primary School Ghawar Kalay (Female),34.400658685907445,71.82229721842326,Female,KPK,0,3,0,1139
 130 - Govt Primary School Ashakai (Combined),34.40101461337091,71.84420775742534,Combined,KPK,2,2,748,618
 129 - Govt: Girls  Middle School Ashakai (Combined),34.40306232226245,71.84366389515328,Combined,KPK,1,1,465,347
 49 - Govt. Primary School Hero Shah Palo Now (P.S-2) (Male),34.40538,71.78973,Male,KPK,4,0,1307,0
 123 - Govt Primary School Salgaro Banda (Male),34.406387607831164,71.81955914125376,Male,KPK,3,0,1157,0
 50 - Govt Girls High School Nehir Bangla (Combined),34.40783447694863,71.79291622493986,Combined,KPK,2,1,617,486
 131 - Govt: Primary School Qadar Kalay  (Male),34.411654544502106,71.82957759639625,Male,KPK,4,0,1476,0
 133 - Govt:High School Koper (Male),34.42202910042137,71.8764670486138,Male,KPK,4,0,1669,0
 134 - Govt: Girls Higher Secondary School Koper (Female),34.422051206098374,71.87779011911417,Female,KPK,0,4,0,1307
 128 - Govt Primary School Ghani Dherai (Combined),34.4222,71.83981,Combined,KPK,2,2,891,656
 33 - Govt Primary School Jarai (Male),34.42375,71.91078,Male,KPK,3,0,1098,0
 125 - Govt Girls Middle School Baghdin Kalay (Female),34.4252180627856,71.85437425209204,Female,KPK,0,4,0,1204
 124 - Govt: Middle School Muhammad Patay (Male),34.42569270686006,71.8508126540762,Male,KPK,4,0,1665,0
 126 - Govt: Higher Secondary School Ghani Dherai (Male),34.4259,71.8507,Male,KPK,4,0,1420,0
 45 - Govt Girls Primary School New Hero Shah No.2 Gul Zada kalay (Female),34.42825204535319,71.8232166647723,Female,KPK,0,3,0,1150
 31 - Govt: Girls Primary School Jharai  (Combined),34.42936776526518,71.90840159274755,Combined,KPK,2,1,691,537
 29 - Govt Primary School Dawa Khan Kalay (Male),34.42978,71.89646,Male,KPK,4,0,1222,0
 34 - Govt: Girls primary School Ghoundo Payan  (Combined),34.43154533244864,71.92773410693965,Combined,KPK,2,1,738,527
 47 - Govt Girls High School Palow Now Hero Shah (Female),34.43171,71.82371,Female,KPK,0,3,0,1002
 48 - Govt Primary School Hero Shah palow Now (P.S-1) (Female),34.43171,71.82374,Female,KPK,0,3,0,1048
 46 - Govt: High School Hero Shah (Male),34.43255462330232,71.82178207090432,Male,KPK,4,0,1228,0
 35 - Govt: Primary School Ghoundo Bala (Combined),34.4385830134523,71.93619992838931,Combined,KPK,1,1,393,265
 17 - Govt Primary School No.2 Gulu Shah (Female),34.438867072318075,71.88719880210449,Female,KPK,0,3,0,999
 18 - Govt. Girls Middle School Gulo Shah (Male),34.43938,71.88035,Male,KPK,4,0,1417,0
 26 - Govt: Primary School Arab Danda  (Male),34.43995120339495,71.89880867673799,Male,KPK,4,0,1494,0
 10 - Govt. Primary School Sarki Bala (Female),34.44536,71.94273,Female,KPK,0,2,0,789
 9 - Govt Girls Primary School Sarki (Male),34.44536,71.94276,Male,KPK,3,0,1015,0
 43 - Govt Primary School Shingrai (Female),34.4490613519469,71.8361716800496,Female,KPK,0,2,0,832
 44 - Govt Primary School Gul Zada kalay (Male),34.4490613519469,71.8362016800496,Male,KPK,4,0,1509,0
 7 - Govt Primary School Mali Khel (Combined),34.45181226059887,71.94716724928364,Combined,KPK,1,1,490,410
 11 - Govt High School Prangay (Combined),34.45672946534717,71.94300718541916,Combined,KPK,1,1,415,329
 22 - Govt High School Sakhkot PS-1 (Male),34.45778837292111,71.91113316534022,Male,KPK,3,0,1206,0
 25 - Govt High School Sakhkot PS-2 (Female),34.45778837292111,71.9111631653402,Female,KPK,0,3,0,943
 2 - Govt Girls Higher Secondary School Sakhakot (P.S-1) (Combined),34.45824252684348,71.91293053258282,Combined,KPK,2,2,618,483
 3 - Govt. Girls Higher Secondary School Sakhakot (P.S-2) (Combined),34.45827,71.9128,Combined,KPK,2,2,1001,737
 68 - Govt:Girls Primary School Brah Shah (Female),34.45897914148407,71.84687670615268,Female,KPK,0,3,0,1162
 20 - Govt Higher Secondary School Skhakot PS-1 (Male),34.459248838990355,71.9057910431617,Male,KPK,4,0,1205,0
 21 - Govt Higher Secondary School Skhakot  PS-2 (Female),34.459248838990355,71.9058210431617,Female,KPK,0,3,0,1014
 16 - Govt Girls Primary School No. 2 Sakhkot  (Combined),34.45925266504759,71.90063157167177,Combined,KPK,2,2,817,667
 24 - Veternary Hospital Sakhakot (Female),34.45933,71.90571,Female,KPK,0,2,0,839
 27 - Rural Health Center Sakhakot (Female),34.45970612269463,71.90674520578013,Female,KPK,0,3,0,1174
 13 - Govt Primary School Khan Gari (Male),34.46595969440585,71.90548194249743,Male,KPK,4,0,1313,0
 4 - Govt High School- Kharki Dehri (P.S-1)(Male),34.467236601114365,71.93907207610545,Male,KPK,4,0,1197,0
 5 - Govt High School- Kharki Dehri (PS-2) (Female),34.467236601114365,71.9391020761054,Female,KPK,0,3,0,865
 14 - Govt Girls Primary School Khan Gari (Female),34.467367279458664,71.90658744181216,Female,KPK,0,3,0,992
 6 - Govt Middle School Akram Abad (Combined),34.46751638677626,71.96406364638646,Combined,KPK,2,2,875,633
 15 - Govt Primary School Pir Mehmood  Shah Killi Bama Dheri (Combined),34.46834017081029,71.91891059656655,Combined,KPK,2,2,903,644
 69 - Govt: Primary School Ghamgeen Abad (Combined),34.468511874741004,71.85217037207748,Combined,KPK,2,2,788,597
 51 - Govt: Girls Primary School Quaid Abad  (Combined),34.46937823517065,71.80626096997727,Combined,KPK,2,2,872,638
 8 - Govt Girls Primary School  Mayar (Combined),34.473072737519566,71.94947238854576,Combined,KPK,2,1,787,606
 147 - Govt Primary School Manzari Baba Krapa (Female),34.47406761187374,71.73051148367861,Female,KPK,0,2,0,774
 77 - Govt: Primary School Wazir Abad (Combined),34.48152992507272,71.89303716109507,Combined,KPK,2,1,645,499
 78 - Govt High School Meharday (Combined),34.48155303848419,71.87885207144498,Combined,KPK,2,1,486,362
 67 - Govt: Primary School No.2 Ghari Usmani Khel (Male),34.48307653968212,71.85127348170928,Male,KPK,4,0,1560,0
 79 - Govt: Primary School Meherdi (Combined),34.483578617754624,71.8688441455098,Combined,KPK,2,2,920,721
 81 - Govt: Primary School Musa Maina (Male),34.483673815567144,71.86895422473651,Male,KPK,4,0,1915,0
 74 - Basic Health Unit Wazir Abad (Female),34.48439808113468,71.89681620500947,Female,KPK,0,2,0,804
 76 - Govt: Girls High School Meherdi (Combined),34.48492,71.89722,Combined,KPK,2,2,644,560
 97 - Govt: Middle School Jabanr  (Male),34.48492,71.89725,Male,KPK,3,0,958,0
 71 - Govt: Middle School Saidrajwar (Male),34.48502355752483,71.88054054915357,Male,KPK,2,0,716,0
 148 - Govt: Girls Higher Secondary School Kot (Combined),34.4864,71.73056,Combined,KPK,2,2,724,569
 107 - Govt: Girls Primary School Dargai  PS-I (Male),34.48678072536114,71.91886575682551,Male,KPK,4,0,1567,0
 108 - Govt: Girls Primary School Dargai PS-II (Female),34.487031850955944,71.91836199457732,Female,KPK,0,4,0,1266
 62 - Govt:Girls Primary School Anar Tangay (Female),34.48871,71.85196,Female,KPK,0,1,0,421
 64 - Govt Girls Primary School Ghari Usmani Khel (Male),34.4892,71.85206,Male,KPK,3,0,933,0
 61 - Govt: Primary School Anar Tangay (Male),34.489452723559324,71.85187282173361,Male,KPK,2,0,611,0
 58 - Govt: High School Haryan Kot  PS-II (Combined),34.4903,71.81932,Combined,KPK,2,2,811,668
 66 - Basic Health Unit Ghari Usmani Khel (Female),34.492989818700615,71.83745995440628,Female,KPK,0,2,0,754
 146 - Govt: Girls Primary School Manzari Baba (Male),34.49397193692548,71.72082812442018,Male,KPK,3,0,1102,0
 141 - Govt: Awis Shaheed High School Maina (Male),34.49403243085861,71.72005605783652,Male,KPK,4,0,1698,0
 142 - Govt: Primary School Maina (Female),34.49413,71.72076,Female,KPK,0,3,0,1386
 139 - Basic Health Unit Barh (Male),34.49446849891118,71.74633881503081,Male,KPK,4,0,888,0
 56 - Govt Girls Primary School Nazifabad (Combined),34.494789211195254,71.82130849789456,Combined,KPK,1,1,436,366
 55 - Govt: Primary School Janat Abad (Combined),34.494799169701295,71.82129302960216,Combined,KPK,2,1,568,397
 57 - Govt High School Haryan Kot (PS-1) (Combined),34.49517833247778,71.82028311934205,Combined,KPK,2,2,782,683
 143 - Govt: Higher Secondary School Kot (Male),34.49524173440665,71.72010636666388,Male,KPK,4,0,1593,0
 145 - Govt: Primary School No.1 Kot (Female),34.49549,71.71071,Female,KPK,0,4,0,1272
 140 - Govt High School Barh (Female),34.4963444525724,71.74665969866506,Female,KPK,0,3,0,692
 137 - Govt:Girls Primary School Toti Shaheed (Female),34.49679373125774,71.77115367780155,Female,KPK,0,3,0,805
 138 - Govt: Primary School Latif Kalay  (Male),34.49835,71.77518,Male,KPK,4,0,1168,0
 54 - Govt Girls Pirmary School Nari Oba (Female),34.49868,71.83049,Female,KPK,0,2,0,754
 149 - Govt: Primary School Mongai (Female),34.4988007918443,71.66746767044427,Female,KPK,0,2,1001,0
 73 - Govt Girls Pri?ary School Katabool  (Combined),34.50086,71.87524,Combined,KPK,2,1,518,448
 72 - Govt Primary School Salgaro Banda (Combined),34.50244035779115,71.87576730049777,Combined,KPK,2,1,520,417
 59 - Govt: Primary School Haryan Kot (Combined),34.50267277143273,71.8479010609175,Combined,KPK,1,1,437,349
 93 - Govt: Primary School Mata (Male),34.50426742237287,71.96330195488163,Male,KPK,3,0,1180,0
 60 - Govt Girls Higher Secondary School Haryankot (Combined),34.50640999797243,71.84729363324142,Combined,KPK,2,1,648,504
 111 - Govt: Girls Community Model School Qaldara (Combined),34.50764754151032,71.89600845062394,Combined,KPK,2,2,854,682
 102 - Govt: Primary School Dargai Power House (Male),34.507849604720825,71.90251965013061,Male,KPK,4,0,1287,0
 104 - Govt: Girls High School Dargai (Male),34.507849604720825,71.9025496501306,Male,KPK,3,0,1041,0
 105 - Govt Primary School No.2 Dargai (Male),34.507856174782745,71.90390361194656,Male,KPK,2,0,673,0
 106 - Govt: Girls High School Dargai (Female),34.507856174782745,71.9039336119466,Female,KPK,0,4,0,1393
 112 - Govt: Primary School Qaldara (Combined),34.5083,71.89859,Combined,KPK,2,2,767,659
 103 - Govt:Girls Primary School Dargai Power House (Female),34.50852,71.90213,Female,KPK,0,3,0,974
 83 - Govt: Girls Primary School Musa Maina (Female),34.50914,71.92893,Female,KPK,0,4,0,1397
 118 - Govt: Pry: School Kass Korona Qaldara (Combined),34.51034577708651,71.88417129018032,Combined,KPK,2,2,640,534
 306 - Govt Primary School Jalal Pur (Female),34.51138563968065,72.08354905463145,Female,KPK,0,2,0,805
 115 - Govt Primary School No.1 Dargai (Female),34.51174507816525,71.88612822779565,Female,KPK,0,3,0,1011
 120 - Govt:Girls High School Kharki (Female),34.51197,71.88624,Female,KPK,0,3,1161,0
 307 - Govt Girls Primary School Jalalpur (Male),34.51251814418593,72.08289472398931,Male,KPK,3,0,1086,0
 119 - Govt High School Qaldara (Combined),34.51354782098652,71.86892869977594,Combined,KPK,1,1,387,274
 121 - Govt: Girls Primary School Salgaro Banda  (Female),34.51378,71.86639,Female,KPK,0,3,0,844
 84 - Govt: Primary School Qadam Khela (Combined),34.51542078419372,71.94505091140535,Combined,KPK,2,2,704,493
 101 - Govt Girls Primary School Dargai Phatak (P.S-2) (Female),34.51544412085826,71.90162104108829,Female,KPK,0,3,0,1018
 100 - Govt:Girls Primary School Dargai Phattak (P.S-1) (Female),34.5154914546951,71.90131598931255,Female,KPK,0,4,0,1441
 309 - Govt: Girls Community Model School Palai (Combined),34.51561,72.08642,Combined,KPK,1,1,457,333
 310 - Govt Primary School No.2 Palai (Combined),34.51561,72.08645,Combined,KPK,2,2,648,518
 85 - Govt Girls Primary School Qadam Khela (Combined),34.51614747082793,71.94431736174734,Combined,KPK,2,2,755,613
 87 - Basic Health Unit Wartair (Female),34.51639,71.9566,Female,KPK,0,3,0,1083
 308 - Govt: Primary School Palai Banda (Combined),34.51651,72.0757,Combined,KPK,2,2,747,553
 86 - Govt: Primary School No.1 Dobandai (Male),34.51788538716437,71.94975940927272,Male,KPK,4,0,1312,0
 88 - Govt: Primary School Wartair  (Combined),34.51995,71.95071,Combined,KPK,1,1,377,270
 90 - Govt: High School Wartair (P.S-1) (Male),34.51995,71.95074,Male,KPK,4,0,1169,0
 91 - Govt: Girls High School Garang Dara (Combined),34.52119434219821,71.96628558296788,Combined,KPK,2,2,630,519
 92 - Govt High School Wartair (P.S-2) (Female),34.52307193178545,71.97611997865758,Female,KPK,0,3,0,929
 116 - Govt: Girls Degree College Dargai  (Combined),34.52558094648624,71.8830485613081,Combined,KPK,2,2,690,532
 98 - Govt: Primary School Jabanr (Female),34.525921365222814,71.90008769103291,Female,KPK,0,2,0,710
 99 - Govt: Primary School Phattak Dargai (Male),34.525921365222814,71.9001176910329,Male,KPK,4,0,3243,0
 304 - Govt: Primary School Atam Banda (Combined),34.52642138874995,72.0799833329838,Combined,KPK,2,1,567,476
 117 - Govt: High School Kharki (Combined),34.52826,71.88175,Combined,KPK,2,2,888,716
 320 - Govt Primary School Bazdara Payeen (Female),34.53232084965858,72.16903659712865,Female,KPK,0,2,0,793
 312 - Govt: Girls Higher Secondary School Palai (P.S-2) (Male),34.532856008072116,72.09427084346885,Male,KPK,3,0,1136,0
 313 - Govt Primary School No.1 Palai (Female),34.53300874524214,72.09174493936615,Female,KPK,0,4,0,1312
 89 - Govt Girls High School Wartair (Combined),34.534795613458435,71.96494540868609,Combined,KPK,2,2,678,591
 152 - Govt. Girls Primary School Selai Patay (Female),34.53512826818964,71.67846672365297,Female,KPK,0,3,0,885
 109 - Govt: Primary School Gul Muqam (Male),34.536899666674856,71.87825873860663,Male,KPK,4,0,1610,0
 317 - Govt Primary School Mura Banda (Combined),34.537783436701346,72.14053705542435,Combined,KPK,2,1,592,479
 318 - Govt: Primary School Loya Banda (Combined),34.53793,72.14053,Combined,KPK,2,1,537,417
 95 - Govt: Primary School Sorana (Male),34.53848222781605,71.90677069710839,Male,KPK,3,0,938,0
 96 - Govt: Girls Primary School Sorana (Female),34.53848222781605,71.9068006971084,Female,KPK,0,2,0,810
 303 - Govt:Primary School Rang Mohallah (Female),34.54194595020642,72.03789664698509,Female,KPK,0,3,0,926
 325 - Govt: Primary School- Sholawai (Combined),34.55224,71.82828,Combined,KPK,2,2,624,505
 321 - Govt: High School Bazdara Bala (PS-I) (Male),34.55247740944464,71.82839803315838,Male,KPK,4,0,1459,0
 324 - Basic Health Unit Maikhband (Female),34.55316619243913,71.82610729426648,Female,KPK,0,2,0,581
 322 - Govt: Girls High School Bazdara Bala (P.S-2) (Female),34.55319948989418,71.82520297245925,Female,KPK,0,3,0,1149
 157 - Govt: Girls High School Totai (Female),34.55584,71.72432,Female,KPK,0,3,0,1012
 153 - Govt Primary School Khanori (Male),34.55624210895403,71.73207214441743,Male,KPK,4,0,1256,0
 154 - Govt: Middle School- Selai Patay (Male),34.5567,71.7321,Male,KPK,4,0,1215,0
 315 - Govt: Primary School Sher Khana (Female),34.55959,72.11442,Female,KPK,0,4,0,1244
 314 - Govt: Middle School Sher Khana  (Male),34.56387336414985,72.11270248400596,Male,KPK,4,0,1644,0
 298 - Govt: Primary School Jalalkot (Female),34.56518804118635,71.9305645767618,Female,KPK,0,4,0,1173
 255 - Govt:Girls Primary School Shalmani (Female),34.56559562260758,71.85356588313329,Female,KPK,0,4,0,1271
 323 - Govt: High School Maikhband (Male),34.56559562260758,71.8535958831333,Male,KPK,2,0,673,0
 297 - Govt: High Schoool Jalal Kot (Male),34.56839200269312,71.9261851563233,Male,KPK,4,0,1438,0
 301 - Govt: Middle School Piran (Combined),34.57162104705179,71.91903677175132,Combined,KPK,2,2,704,599
 316 - Govt: Middle School Mura Banda Palai (Combined),34.57211100521076,72.1313746721587,Combined,KPK,1,1,422,351
 302 - Govt:Primary School Piran (Male),34.57924964338568,71.88953983073951,Male,KPK,4,0,1239,0
 329 - Govt: Primary School No.2 Pir Khel (Female),34.58197959093447,71.80800142586978,Female,KPK,0,4,0,1153
 328 - Govt: Girls Primary School Pir Khel (Male),34.58226891401336,71.80793390160227,Male,KPK,4,0,1492,0
 299 - Govt: High School Malakand (Male),34.58293773389036,71.93392823490649,Male,KPK,4,0,1335,0
 300 - Civil Hospital Malakand (Female),34.58293773389036,71.9339582349065,Female,KPK,0,3,0,1152
 240 - GovT: Girls Primary School Matkanai (Female),34.58426,71.71387,Female,KPK,0,4,0,1341
 241 - Govt: High School Agra (Combined),34.58426,71.7139,Combined,KPK,2,2,913,682
 296 - Govt: Girls Primary School Khandako (Female),34.58478166107852,71.90381530216348,Female,KPK,0,3,0,903
 295 - Govt: Primary School Kandako (Male),34.585263167370506,71.90354692514245,Male,KPK,3,0,1103,0
 239 - Govt High School Matkani (P.S-2) (Male),34.58586781020896,71.71134283672858,Male,KPK,2,0,753,0
 165 - Govt: Primary School Gulshan Abad Batkhela (Female),34.595774511027685,71.98056536369813,Female,KPK,0,4,0,1349
 244 - Govt: Middle School- Ghund  (Combined),34.59809,71.71045,Combined,KPK,1,1,458,321
 210 - Govt: Commerce College Thana (P.S-1) (Male),34.5999166544737,72.10812222643985,Male,KPK,4,0,1613,0
 293 - Rural Health Unit Julagram (Female),34.60103656356704,71.90103466238232,Female,KPK,0,4,0,1340
 211 - Govt: Commerce College Thana  (PS-II) (Female),34.60157,72.10865,Female,KPK,0,4,0,1254
 212 - Govt: High School Nal (Male),34.60190640144546,72.10947070279538,Male,KPK,3,0,930,0
 245 - Govt: Middle School Kama Agra (Female),34.60382,71.73216,Female,KPK,0,3,0,961
 246 - Govt Girls Primary School Kama Agra (Male),34.60537631721563,71.73043016130539,Male,KPK,4,0,1269,0
 177 - Govt: Girls Primary School No.1 Batkhela (Combined),34.60544881569208,71.95020449057324,Combined,KPK,2,2,652,500
 178 - Govt Degree College Batkhela (P.S-2) (Male),34.60544881569208,71.9502344905732,Male,KPK,3,0,1106,0
 179 - Fedral Govt: High School Batkhela (PS-1) (Male),34.605764313756715,71.9505257832188,Male,KPK,4,0,1217,0
 180 - Fedral Govt: High School Batkhela (PS-II) (Female),34.605764313756715,71.9505557832188,Female,KPK,0,3,0,967
 185 - Govt: Girls High School Batkhela (P.S-1) (Male),34.6069986472666,71.95961137598343,Male,KPK,2,0,607,0
 268 - Govt: Primary School No.2 Dheri Aladand (Female),34.60763963952286,72.01241463419576,Female,KPK,0,4,0,1513
 183 - Govt: Primary School Chinar Koto (Male),34.60783659159343,71.9571966078815,Male,KPK,4,0,1475,0
 184 - Govt: Girls Primary School Maizara (Female),34.60783659159343,71.9572266078815,Female,KPK,0,3,0,1071
 167 - Govt: Primary School Kalito Banda Batkhela (Male),34.608168183051774,71.98104309953159,Male,KPK,2,0,535,0
 280 - Govt:Girls Primary School No.1 Khar (Female),34.60850557844661,71.93387514368169,Female,KPK,0,3,0,1125
 319 - Govt: High School Bazdara Payan (Male),34.60865,72.02145,Male,KPK,3,0,1093,0
 203 - Govt: Girls Primary School . Maizara Thana  (Male),34.60870988712493,72.06675151591287,Male,KPK,3,0,888,0
 252 - Govt: Primary School No.2 Dheri Aladand (P.S-1) (Female),34.60871510023023,72.02168410760123,Female,KPK,0,2,0,800
 281 - Govt: Middle School Karkanai (Combined),34.60883450689642,71.93671697806309,Combined,KPK,2,1,573,428
 282 - Govt: Primary School Khar Banda (Combined),34.60883450689642,71.9367469780631,Combined,KPK,2,2,892,714
 220 - Govt High School Haibatgram (Male),34.60884783803381,71.93673898308575,Male,KPK,3,0,1025,0
 205 - Govt:Middle School. Gunyar (Male),34.60885,72.06688,Male,KPK,3,0,1064,0
 249 - Basic Health Unit Meshta Agra (Combined),34.609036621675536,72.02152402021846,Combined,KPK,2,1,700,476
 250 - Govt: Primary School No.2 Bararo Sar (Combined),34.609036621675536,72.0215540202185,Combined,KPK,1,1,546,367
 251 - Govt: High School No.2 Dheri Aladand (P.S-1) (Male),34.609036621675536,72.0215840202185,Male,KPK,3,0,945,0
 266 - Govt: Primary School No.1 Dheri Aladand (Male),34.609036621675536,72.0216140202185,Male,KPK,2,0,773,0
 260 - Govt: Girls Community Model School Said Abad (Female),34.61091130315419,72.0203514647019,Female,KPK,0,4,0,1583
 261 - Govt: Primary School.No.3 Dheri Aladand (Combined),34.61091130315419,72.0203814647019,Combined,KPK,2,1,520,404
 264 - Rural Health Center Dheri Aladand  (Male),34.6125409808581,72.01920051956179,Male,KPK,3,0,1143,0
 267 - Govt Girls Primary School No.1 Dheri Aladhand (Male),34.61262925514171,72.02004374485412,Male,KPK,4,0,1212,0
 162 - Govt: Primary School Gharib Abad (Female),34.61263715484585,71.97959877436368,Female,KPK,0,4,0,1920
 161 - Govt: Girls Middle School Gharib Abad (Male),34.612698584426795,71.97959533230184,Male,KPK,4,0,2612,0
 279 - Govt: Primary School No.1 Khar  (Male),34.612855750368446,71.91778450783222,Male,KPK,4,0,1384,0
 276 - Govt: Primary School Amandara Shagai (Combined),34.6134458622007,71.93824201257091,Combined,KPK,2,2,909,678
 275 - Govt Girls Primary School Sharab Dara (Male),34.6135129640451,71.93832314759449,Male,KPK,4,0,1304,0
 258 - Govt: Primary School Said Abad (P.S-1) (Male),34.61361980606306,72.02546312863356,Male,KPK,2,0,809,0
 181 - Fedral College Batkhela   (PS-I) (Male),34.6140162422839,71.95106546829491,Male,KPK,4,0,1556,0
 256 - Govt: High School School Zulam Kot (Male),34.614274840614726,72.02593067891532,Male,KPK,4,0,1436,0
 257 - Govt: Primary School Zulamkot (Female),34.614274840614726,72.0259606789153,Female,KPK,0,4,0,1275
 277 - Govt: Girls High School Khar (P.S-1) (Male),34.61428917072672,71.93751208661821,Male,KPK,4,0,1396,0
 231 - Govt: Girls Primary School- No.1 Totakan (Female),34.61467,71.82477,Female,KPK,0,3,0,1075
 1 - Govt Middle School Monawar Shah kaly Zangal patay Skhakot (Combined),34.614679280802996,71.97373025214286,Combined,KPK,1,1,351,298
 19 - Govt Primary School No.1 Sakhakot (Combined),34.614679280802996,71.9737602521429,Combined,KPK,2,2,697,544
 32 - Govt Girls Middle School Jaray (Female),34.614679280802996,71.9737902521429,Female,KPK,0,2,0,815
 36 - Govt: High School Badraga (Male),34.614679280802996,71.9738202521429,Male,KPK,3,0,1333,0
 38 - Govt: Girls Primary School Badraga (Female),34.614679280802996,71.9738502521429,Female,KPK,0,2,0,970
 39 - Govt: Middle School Khushal Garh (Female),34.614679280802996,71.9738802521429,Female,KPK,0,3,0,918
 42 - Govt Middle School Shingrai (Male),34.614679280802996,71.9739102521429,Male,KPK,2,0,1080,0
 122 - Govt Primary School Kharkai (Male),34.614679280802996,71.9739402521429,Male,KPK,4,0,0,939
 230 - Govt: Girls High School Totakan (P.S-2) (Female),34.61474747651066,71.82404664981573,Female,KPK,0,3,0,876
 224 - Govt: Girls Middle School Jalala (Female),34.61493017809498,71.82463868979112,Female,KPK,0,4,0,1386
 228 - Govt Degree College Totakan (Female),34.61493017809498,71.8246686897911,Female,KPK,0,3,0,1083
 175 - Govt: Girls Community Moddle School Amin Abad (Female),34.61540317672754,71.9679951052264,Female,KPK,0,3,0,1159
 160 - Govt Girls Primary School Gharibabad (Combined),34.61541058356509,71.98290523797662,Combined,KPK,2,1,508,357
 273 - Govt: Primary School Jalawanan (Combined),34.61574,72.00073,Combined,KPK,2,2,851,666
 286 - Govt Higher Secondary School Dheri Julagram (P.S-1) (Female),34.61578346165089,71.9060071868235,Female,KPK,0,2,0,892
 283 - Govt: Higher Secondary School Khar (P.S-1) (Male),34.615958426932515,71.90314894979787,Male,KPK,4,0,1514,0
 291 - Govt Primary School Kasinat (Combined),34.61597115711332,71.89872419155233,Combined,KPK,2,2,811,666
 274 - Govt:Girls Primary School Amandara Shagai (Female),34.61623829889182,71.99472296215703,Female,KPK,0,3,0,975
 285 - Govt: Primary School Dheri Julagram (Male),34.61629,71.906,Male,KPK,3,0,1011,0
 284 - Govt: High School Khar (PS-II) (Female),34.61637,71.90423,Female,KPK,0,3,0,1161
 287 - Govt Girls High School Dheri (Male),34.61637,71.90426,Male,KPK,2,0,730,0
 242 - Govt: Degree College Agra (P.S-1) (Male),34.61637366819037,71.71143521549553,Male,KPK,3,0,1272,0
 289 - Govt: Higher Secondary School Dehri Julagram (P.S-2) (Female),34.61644,71.90804,Female,KPK,0,4,0,1513
 331 - Govt: Pry: School No.1 Pir Khel (Female),34.61646954877977,71.80102032206739,Female,KPK,0,3,0,1102
 227 - Govt: High School Totakan  (Male),34.616635176434386,71.82736438573714,Male,KPK,4,0,1398,0
 171 - Govt Degree College Batkhela (P.S-1) (Male),34.616745911739876,71.96773803131629,Male,KPK,3,0,1123,0
 229 - Govt: Primary School No.1 Totakan (Male),34.61679730579565,71.82735041135898,Male,KPK,4,0,1414,0
 159 - Basic Health Unit Totai (Female),34.61688426535763,71.98304778504496,Female,KPK,0,3,0,965
 290 - Govt: Girls Community Model School Kasinat (Combined),34.6170157852075,71.89688528829693,Combined,KPK,2,2,748,611
 158 - Govt: Primary School Narangi (Combined),34.61719,71.98321,Combined,KPK,1,1,429,331
 330 - Govt: High School Pir Khel (Male),34.617210144066036,71.801122326972,Male,KPK,4,0,1379,0
 272 - Govt: Girls Community Model School Malang Abad Amandara (Male),34.61911516553607,71.98956769436592,Male,KPK,4,0,1430,0
 225 - Govt: Primary School- Gat Koto Ranogai (Combined),34.62043126175903,71.81931574055531,Combined,KPK,1,1,505,342
 226 - Govt: Girls High School Totakan (P.S-1) (Male),34.6205,71.81924,Male,KPK,3,0,1111,0
 237 - Govt: Primary School- Matkanai (Combined),34.62071,71.84458,Combined,KPK,2,1,612,507
 236 - Govt:Girls High School- Matkanai (Combined),34.62075795805747,71.84458442020868,Combined,KPK,1,1,259,215
 168 - Govt: Girls Primary School Kalito Banda Batkhela (Female),34.621612873300236,71.98071374718288,Female,KPK,0,2,0,448
 172 - Govt: Primary School upper Batkhela (Female),34.621612873300236,71.9807437471829,Female,KPK,0,4,0,1309
 235 - Govt: Primary School Faisal Abad (Female),34.621835777189084,71.84622294588135,Female,KPK,0,2,0,828
 174 - Govt: Centenial Model School Batkhela (P.S-2) (Male),34.621902070032874,71.98174327652748,Male,KPK,4,0,1507,0
 169 - Govt; Primary School Khatkay (Combined),34.62207,71.97961,Combined,KPK,2,1,611,460
 176 - Govt: Girls Degree College Batkhela Zafarr Park (Female),34.62207,71.97964,Female,KPK,0,3,0,847
 170 - Govt: Centenial Model School Batkhela (P.S-1) (Male),34.62223982417971,71.98163399500363,Male,KPK,2,0,627,0
 238 - Govt: High School- Matkanai (P.S-1) (Male),34.622455235650236,71.84915097138763,Male,KPK,3,0,911,0
 269 - Govt: High School No.1 Alladand (Male),34.62258670894139,72.01441461617307,Male,KPK,3,0,1110,0
 232 - Govt: Primary School No.2 Totakan  (Combined),34.622919277212134,71.81222644781334,Combined,KPK,1,1,337,229
 173 - Govt High School No.2 Batkhela  (Combined),34.62316116887631,71.98135390012833,Combined,KPK,2,2,748,520
 233 - Govt Girls Primary School No.2 Totakan (Combined),34.623281595831244,71.81255532548008,Combined,KPK,2,2,777,683
 247 - Govt Primary School Inzargai (Male),34.62340408230219,71.75248257519371,Male,KPK,3,0,1066,0
 259 - Govt Primary School Saidabad  (P.S-2) (Male),34.62387373087115,72.03610856197177,Male,KPK,3,0,1251,0
 292 - Govt: High School Julagram (Male),34.62460710102055,71.88950171814108,Male,KPK,4,0,1577,0
 234 - Govt: Girls Community Model School- Hisar Banda (Male),34.625307759873294,71.85597303275041,Male,KPK,3,0,1063,0
 334 - Govt: Primary School Qalangai (Combined),34.62583557407645,71.81286264772918,Combined,KPK,2,2,634,495
 206 - Govt Degree College Thana (Male),34.626154468647485,72.07249277109348,Male,KPK,3,0,1001,0
 207 - Govt Girls Middle School Gunyar (Female),34.6274684949332,72.07037920539817,Female,KPK,0,3,0,855
 271 - Govt: Primary School Hadi Khas  (Female),34.62918691951726,72.00161853925209,Female,KPK,0,3,0,1076
 333 - Govt: Primary School Lalopatay (Female),34.62948743021276,71.798728522988,Female,KPK,0,3,0,912
 208 - Govt: Primary School- College Coloney (Male),34.63033720728288,72.07120623094043,Male,KPK,4,0,1225,0
 209 - Govt: Girls Primary School- College Coloney (Female),34.63039235339471,72.07119265201453,Female,KPK,0,3,0,932
 199 - Civil Hospital Thana (PS-I) (Male),34.63056605534463,72.064248484891,Male,KPK,4,0,1557,0
 332 - Govt: Girls Primary School Lalopatay (Male),34.631104449880084,71.8020622716216,Male,KPK,4,0,1256,0
 204 - Govt: Primary School- Bakhta Thana (Female),34.6318,72.06902,Female,KPK,0,4,0,1483
 200 - Civel Hospital Thana (P.S-2) (Female),34.632945404836754,72.05790006680479,Female,KPK,0,4,0,1304
 191 - Govt: High School No.2 Thana (Female),34.63619920307459,72.0764871506083,Female,KPK,0,3,0,992
 192 - Govt Girls Degree College Thana (P.S-1) (Male),34.6377646457989,72.07004947358153,Male,KPK,4,0,1211,0
 194 - Govt: Adil shahzad shaheed High School No.1 Thana (P.S-1) (Male),34.6377646457989,72.0700794735815,Male,KPK,3,0,1175,0
 197 - Govt: Centinial Model School for Girls Thana (PS-1) (Male),34.63814,72.06941,Male,KPK,4,0,1500,0
 198 - Govt: Centinial Model School for Girls Thana(PS-II) (Female),34.63814,72.06944,Female,KPK,0,3,0,1162
 188 - Office of the Co-Operative Batkhela (Female),34.638674292224984,72.07037712100559,Female,KPK,0,4,0,1328
 190 - Govt: Primary School No.1 Thana (Male),34.63884,72.07098,Male,KPK,4,0,1307,0
 193 - Govt: Pry: School Danda (Female),34.63884,72.07101,Female,KPK,0,2,1214,0
 189 - Govt:Girls Primary School No.1 Thana (Female),34.639033554325245,72.07172751931247,Female,KPK,0,4,0,1090
 187 - Govt Primary School Akbar abad Batkhela (Combined),34.63936452206598,72.07326106547598,Combined,KPK,2,2,928,687
 195 - Govt Girls Degree College Thana (P.S-2) (Male),34.64030078649687,72.07084472389097,Male,KPK,2,0,0,1003
 196 - Govt. Adil Shehzad Shaheed High Schoool No.1 Thana (P.S-2) (Female),34.64030078649687,72.070874723891,Female,KPK,0,3,0,917
 215 - Govt: Primary School No.2 Thana (Male),34.64309476970729,72.0809860687675,Male,KPK,3,0,999,0
 213 - Govt Girls Middle School Nal (Male),34.64325264980492,72.07716622699508,Male,KPK,3,0,950,0
 218 - Basic Health Unit Butano Khpa Thana (Combined),34.64706,72.10005,Combined,KPK,2,2,1039,860
 216 - Govt Girls Primary School No.2 Thana (Female),34.647515352869014,72.09122608999076,Female,KPK,0,2,0,1459
 219 - Govt: Primary School Haibat Gram (Male),34.65151900281682,72.09932370673016,Male,KPK,2,0,810,0
 217 - Govt: Girls High School Badam Baghicha (Male),34.65158181819299,72.10006969621816,Male,KPK,2,0,845,0
 221 - Govt:Girls Middle School Haibatgram (Female),34.65805859300188,72.1115108035741,Female,KPK,0,4,0,1472
 222 - Govt: High School Jalala (P.S-1) (Male),34.660456239963594,72.11053291111925,Male,KPK,2,0,582,0
 223 - Govt High School Jalala (P.S-2) (Male),34.661904900457,72.1242347861775,Male,KPK,3,0,1094,0
