PollingStation,Lat,Lng,BoothType,Province,MaleBooths,FemaleBooths,MaleVoters,FemaleVoters
 356 - 356-Govt. Boys Elementary School Dhok Peera (Combined),32.57523736587403,71.89377648396317,Combined,Punjab,1,1,397,366
 15 - 15-Govt. High School Kundal ( Male),32.58032764384715,71.30280462165786,Male,Punjab,3,0,1728,0
 16 - 16-Govt. High School Kundal ( Female),32.58032764384715,71.3028346216579,Female,Punjab,0,2,0,1339
 357 - 357-Govt. Boys High School Dhok Miani  (Combined),32.60063675718164,71.89583521531743,Combined,Punjab,1,1,658,532
 17 - 17-Basic Health Unit Attock Panyala (Kundal)  (Combined),32.60073051249909,71.27680050023481,Combined,Punjab,1,1,329,183
 188 - 188-Govt. Boys Primary School Kaila  (Combined),32.60562911723035,71.54044071898399,Combined,Punjab,1,1,557,437
 185 - 185-Govt Boys High School Shehbaz Khel (Primary Portion) Mohallah Wazir Khel Shehbaz Khel (Combined),32.60925597402044,71.52602139976813,Combined,Punjab,2,2,1068,948
 184 - 184-Union Council Office Shehbaz Khel  (Combined),32.61227253717181,71.5325563544837,Combined,Punjab,2,2,862,785
 182 - 182-Govt Girls High School Shahbaz Khel (Combined),32.6145030781529,71.52899229693567,Combined,Punjab,2,2,901,904
 189 - 189-Govt Boys Primary School Ghalbalian Wala (Combined),32.61553967486329,71.5753564620106,Combined,Punjab,2,1,906,649
 186 - 186-Govt. Boys Primary School Beruli Yaru Khel  (Combined),32.62174468432143,71.54569669286828,Combined,Punjab,1,1,480,456
 370 - 370-Govt Boys Primary School Mouza Bazar (P)* (Combined),32.622760396045436,71.79004343042432,Combined,Punjab,1,1,793,666
 24 - 24-Govt. Boys Elementary School Sheikh Abad (Combined),32.62746,71.19753,Combined,Punjab,1,1,595,461
 23 - 23-Govt.Boys Elementary School Sheikh Abad  (Combined),32.62748514709077,71.19737092151308,Combined,Punjab,1,1,537,402
 187 - 187-Govt Boys Elementary School Dhair Yaru Wala  (Combined),32.629801960091655,71.52002761231098,Combined,Punjab,1,1,237,199
 190 - 190-Govt Boys High Ahmed Khan wala (Combined),32.631251035977016,71.60090867158698,Combined,Punjab,1,1,615,513
 191 - 191-Govt. Primary School Dera Haji Mumtaz Khan Wala  (Combined),32.63182052778812,71.5799201615175,Combined,Punjab,1,1,536,481
 193 - 193-Govt Boys Elementary School Saleem Khel (Kabaran Wala) (Combined),32.63501414563774,71.63611559455177,Combined,Punjab,2,1,792,687
 19 - 19-Govt. Boys Primary School Sarwar Khel (Combined),32.63627435109207,71.26054843369232,Combined,Punjab,2,2,955,784
 183 - 183-Govt.Girls Primary School Dera Haji Gul Khan Wala (Combined),32.63652362831716,71.55286128600942,Combined,Punjab,1,1,400,393
 18 - 18-Govt. Boys Primary School Khaglan Wala  (Combined),32.63936204315296,71.27157593672882,Combined,Punjab,2,1,772,602
 192 - 192-Govt Boys Primary School Khan Zaman Wala (Combined),32.644269084559035,71.56904061271024,Combined,Punjab,2,2,996,792
 20 - 20-Govt.Model Elementary School Maseet Wala  (Combined),32.64492121942186,71.23012568945146,Combined,Punjab,2,2,984,797
 22 - 22-Govt.Boys High School Sheikh Mehmood Wala  (Combined),32.64505921574111,71.24288536907424,Combined,Punjab,2,2,990,829
 360 - 360-Basic Health Unit Dhok Ayub  (Combined),32.64561,71.8583,Combined,Punjab,1,1,355,311
 359 - 359-Basic Health Unit Dhok Ayub  (Combined),32.64571594071274,71.85834959821084,Combined,Punjab,1,1,689,614
 7 - 7-Govt. Girls Primary School Hakeem Abad  (Combined),32.64713588157951,71.28530138416144,Combined,Punjab,2,1,827,739
 21 - 21-Basic Health Unit Maseet Wala  (Combined),32.647765366363664,71.23217659317724,Combined,Punjab,2,1,800,623
 194 - 194-Govt Girls Primary School Mohallah Janubi Rokhari (Combined),32.65601518825384,71.51090662663057,Combined,Punjab,2,2,914,805
 25 - 25-Govt.Boys Primary School Bhuttan Wala.  (Combined),32.658778665504286,71.23927368031656,Combined,Punjab,2,2,918,823
 195 - 195-Govt Boys High School Rokhri (Combined),32.65891379145483,71.51585770636494,Combined,Punjab,1,1,433,353
 203 - 203-Govt Boys High School Rokhari  (Combined),32.65891379145483,71.5158877063649,Combined,Punjab,1,1,396,366
 311 - 311-Govt. Boys Elementary School Masti Wala  (Combined),32.6601395637297,71.63930750038239,Combined,Punjab,2,1,791,702
 361 - 361-Govt. Girls Primary School Garori Namal (Combined),32.66044570795701,71.82037288802978,Combined,Punjab,1,1,679,592
 201 - 201-Govt Boys Elementary School Bharion Wala (Combined),32.66281038873033,71.58632721959562,Combined,Punjab,2,1,786,644
 200 - 200-Govt Girls High School Rokhari  (Combined),32.66371027447335,71.52178408409628,Combined,Punjab,1,1,433,388
 202 - 202-Govt. Girls Primary School Bharion Wala (Combined),32.6642,71.60466,Combined,Punjab,1,1,526,460
 13 - 13-Govt. Girls Primary School Azeem Abad Isa Khel (Female),32.66666638478487,71.27810381368835,Female,Punjab,0,2,0,1514
 310 - 310-Govt. Boys Elementary School Chitta Watta (Combined),32.67212540339126,71.66503618453653,Combined,Punjab,2,2,1011,949
 12 - 12-Govt.Girls Primary School Mohallah Muqarab Khel (Isa Khel) (Female),32.67368782287288,71.27962695176544,Female,Punjab,0,2,0,1546
 4 - 4-Govt Primary School No.2 Mohallah Esab Khel Isa Khel (Male),32.674165322045475,71.28099795376981,Male,Punjab,3,0,1638,0
 367 - 367-Govt High School Dhurnaka (Primary Portion) (Combined),32.67496060544297,71.8509474238855,Combined,Punjab,1,1,449,383
 363 - 363-Govt Boys Secondary School Dhurnaka  (Combined),32.67512,71.85085,Combined,Punjab,1,1,606,579
 362 - 362-Govt Boys Secondary School Dhurnaka  (Combined),32.67512904403575,71.8507753292118,Combined,Punjab,1,1,573,570
 6 - 6-Govt. Girls Elementary School (Mohallah Shah) Isakhel. (Male),32.675143319225135,71.28300418179317,Male,Punjab,2,0,1122,0
 1 - 1-Govt.Girls Primary School Alam Khel (Isa Khel) (Male),32.67543855499697,71.28126467739388,Male,Punjab,3,0,1522,0
 366 - 366-Govt Boys High School Dhibba Karsial  (Combined),32.67746,71.88358,Combined,Punjab,1,1,548,484
 365 - 365-Govt Boys High School Dhibba Karsial  (Combined),32.67753091187194,71.88348946449533,Combined,Punjab,1,1,719,683
 3 - 3-Govt. Girls High School Isa Khel (Male),32.6779,71.27749,Male,Punjab,2,0,1486,0
 14 - 14-Govt. Degree College For Women Isakhel (Female),32.67806949179151,71.27569685340731,Female,Punjab,0,2,0,1011
 2 - 2-Govt.Boys High School Isa Khel No.2 Isa Khel ( Male ),32.67807581231437,71.27664929809244,Male,Punjab,2,0,1329,0
 10 - 10-Govt.Girls Primary School Kass Umar Khan Mohallah Bumbran Wala (Isa Khel) (Female),32.68032318677362,71.2791815191436,Female,Punjab,0,2,0,1377
 8 - 8-Govt.Technical Training Center Isa Khel (Male),32.68042627171872,71.27445327360098,Male,Punjab,2,0,837,0
 5 - 5-Tehsil Municipal Administration Isa Khel (Male),32.680456866098226,71.27518990800522,Male,Punjab,2,0,1226,0
 312 - 312-Govt.Girls Primary School Samandi Wala  (Combined),32.68152547155206,71.62165774014034,Combined,Punjab,1,1,345,335
 196 - 196-Govt.Girls High School Samand Wala (Combined),32.68189673027358,71.5718206469352,Combined,Punjab,1,1,364,349
 11 - 11-Govt. Girls Primary School Railway Station Isa Khel (Female),32.68233,71.27572,Female,Punjab,0,2,0,1382
 199 - 199-Jabir Bin Hayan High School Tari Khel (PEF) (Combined),32.68268,71.52694,Combined,Punjab,2,2,874,739
 26 - 26-Govt Boys Elementary School Bhore Sharif ( Male ),32.68314933808894,71.25078450117341,Male,Punjab,2,0,1306,0
 27 - 27-Govt.Girls Primary School Bhore Sharif (Female),32.68443888767033,71.24868736839286,Female,Punjab,0,2,0,1168
 204 - 204-Govt Boys Elementary School Samand Wala (Combined),32.68516727049186,71.5717747222528,Combined,Punjab,1,1,500,505
 313 - 313-Govt. Boys Primary School Samandi Wala (Combined),32.68682,71.61783,Combined,Punjab,2,1,802,777
 197 - 197-Govt.Boys Primary School Lift Irrigation Scheme Samand Wala (Combined),32.68700662180118,71.55415016999522,Combined,Punjab,2,1,803,707
 303 - 303-Govt Boys Primary School Machhi Wala  (Combined),32.687593336979916,71.58615406317166,Combined,Punjab,1,1,749,666
 198 - 198-Govt.Boys Elementary School Tari Khel  (Combined),32.689549788247334,71.5263316719902,Combined,Punjab,2,2,943,827
 308 - 308-Govt.Boys High School Ghundi (Combined),32.69077393843636,71.64186959896391,Combined,Punjab,2,2,938,860
 214 - 214-Govt.Boys Elementary School Nauranga (Combined),32.69746498025637,71.46159121623566,Combined,Punjab,1,1,308,256
 309 - 309-Govt Girls Elementary School Ghundi (Combined),32.697598935302146,71.65768600452171,Combined,Punjab,1,1,393,369
 364 - 364-Govt Boys High School Dhok Ali Khan (Combined),32.69778616980129,71.84907781246208,Combined,Punjab,1,1,693,674
 368 - 368-Govt. High School Dhok Ali Khan (Combined),32.69778616980129,71.8491078124621,Combined,Punjab,2,2,888,758
 369 - 369-Govt. High School Dhok Ali Khan (Combined),32.69778616980129,71.8491378124621,Combined,Punjab,2,1,775,681
 315 - 315-Govt. Girls Primary School Pallu Wala (Combined),32.69821,71.68716,Combined,Punjab,1,1,693,585
 336 - 336-Govt Boys High School Rikhhi (Combined),32.70149823671797,71.79094641490589,Combined,Punjab,1,1,653,585
 337 - 337-Govt Boys High School Rikhhi (Combined),32.70158,71.79071,Combined,Punjab,2,2,798,790
 213 - 213-Govt. Boys Primary School Sheikhan Wala  (Combined),32.70380398595273,71.45773441877968,Combined,Punjab,1,1,785,681
 305 - 305-Govt. Boys Primary School Chah Khalil Wala (Combined),32.705879202369154,71.59214457083215,Combined,Punjab,1,1,753,702
 208 - 208-Govt Boys High School Dillewali (Qureshian) (Male),32.70959778131774,71.54009892985145,Male,Punjab,2,0,1169,0
 317 - 317-Govt.Boys Elementary School Bori Khel (Combined),32.709657222697565,71.74236678192389,Combined,Punjab,1,1,530,410
 206 - 206-Govt. Boys High School Dillewali (Qureshian) (Combined),32.7096579645735,71.54015983525397,Combined,Punjab,1,1,457,398
 209 - 209-Govt. Girls High School Dillewali (Qureshian) (Female),32.70966,71.53937,Female,Punjab,0,2,0,974
 314 - 314-Govt. Boys Primary School Wandha Ayaz Wala.  (Combined),32.70974181753622,71.69078731139928,Combined,Punjab,2,2,934,741
 316 - 316-Govt.Boys Elementary School Bori Khel (Combined),32.70984,71.74251,Combined,Punjab,1,1,636,539
 205 - 205-Union Council Office Qureshian (Combined),32.71012,71.53164,Combined,Punjab,1,1,619,589
 211 - 211-Govt. Girls Primary School Noor Hassan wala (Combined),32.71025,71.52681,Combined,Punjab,2,2,869,764
 212 - 212-Govt.Boys High School Dillewali (Qureshian) (Primary Portion) (Combined),32.710878836354375,71.53333562889591,Combined,Punjab,1,1,612,535
 333 - 333-Govt Boys Primary School Kochha Sharif (Combined),32.71276395635146,71.78694453468304,Combined,Punjab,1,1,558,482
 306 - 306-Govt Boys High School Sawans (Combined),32.715057831797736,71.63194393143888,Combined,Punjab,1,1,410,337
 36 - 36-Govt Boys Elementary School Kaluan Wala  (Combined),32.718610778175716,71.25989957190214,Combined,Punjab,2,1,1040,559
 37 - 37-Govt Boys Elementary School Kaluan Wala  (Combined),32.718610778175716,71.2599295719021,Combined,Punjab,1,2,667,908
 217 - 217-Govt Boys Primary School Dera Madat Khelan Wala  (Combined),32.72212973995838,71.36272181052902,Combined,Punjab,1,1,361,249
 207 - 207-Govt Boys Elementary School Dandi (Combined),32.723837038130476,71.5220672864481,Combined,Punjab,1,1,659,550
 230 - 230-Govt. Girls Primary School Dadran Wala (Watooan wala) (Combined),32.72447474340494,71.56844583217179,Combined,Punjab,1,1,730,610
 39 - 39-Govt.Boys High School Chheena Pura (Female ),32.725121433743766,71.31885163954757,Female,Punjab,0,2,0,1383
 38 - 38-Govt.Boys High School Chheena Pura ( Male ),32.72515302418116,71.31882109234881,Male,Punjab,3,0,1704,0
 210 - 210-Govt. Boys Primary School Khawaja Abad (Combined),32.72523513341102,71.53461125511821,Combined,Punjab,1,1,718,584
 335 - 335-Govt Girls High School Kalri (Combined),32.72778,71.78051,Combined,Punjab,1,1,567,450
 358 - 358-Govt. Boys High School Dhok Miani  (Combined),32.72778,71.78054,Combined,Punjab,1,1,687,627
 334 - 334-Govt Girls High School Kalri  (Combined),32.72778166477817,71.78050887816411,Combined,Punjab,1,1,647,611
 307 - 307-Govt Girls Primary School Mohallah Sarfraz Khelan wala  (Combined),32.72820594974569,71.62385453419662,Combined,Punjab,2,2,861,769
 301 - 301-Union Council Office Sawans (Combined),32.72863305481417,71.62473946963183,Combined,Punjab,2,2,821,771
 302 - 302-Govt.Boys High School Sawans (Primary Portion) (Combined),32.72863305481417,71.6247694696318,Combined,Punjab,2,1,840,726
 352 - 352-Union Council Office Ban Hafiz Jee  (Combined),32.72875945937728,71.8475903276805,Combined,Punjab,1,1,574,539
 225 - 225-Govt.Boys Primary School Chah Sahib Dad Khan Wala  (Combined),32.72896015526248,71.51767553296054,Combined,Punjab,1,1,544,456
 226 - 226-Govt.Girls Primary School Tubwell Muhammad Khan Saddar  (Combined),32.729783893490904,71.53293906443407,Combined,Punjab,1,1,663,551
 304 - 304-Govt Boys Primary School Sultan Ahmed Khelan wala (Combined),32.7306212841133,71.60364013571841,Combined,Punjab,1,1,555,483
 215 - 215-Govt Boys Primary School Muhammad Sharif wali  (Combined),32.730959995644525,71.4463475946354,Combined,Punjab,1,1,543,412
 218 - 218-Govt. Boys Elementary School Khan Muhammad Wala  (Combined),32.73153630584697,71.47232595481066,Combined,Punjab,1,1,572,474
 353 - 353-Govt.Model Primary School Ban Hafiz Jee (Girls Portion) (Combined),32.73248825244844,71.8483067015871,Combined,Punjab,1,1,552,503
 351 - 351-Govt.Model Primary School Ban Hafiz Jee (Boys Portion) (Combined),32.7329664000848,71.84673912508096,Combined,Punjab,1,1,630,534
 32 - 32-Govt. Boys High School Awanan Wala (Combined),32.735032197412295,71.1963596345432,Combined,Punjab,2,1,826,650
 34 - 34-Govt.Model Primary School Sailab Colony (Boys Portion) (Combined),32.73505798389725,71.27653143933465,Combined,Punjab,1,1,594,457
 35 - 35-Govt.Model Primary School Sailab Colony (Girls Portion) (Combined),32.73507,71.27657,Combined,Punjab,1,1,508,416
 300 - 300-Govt. Girls Primary School Dilasa Khan Wala (Combined),32.73599,71.58643,Combined,Punjab,1,1,414,366
 299 - 299-Govt.Boys Primary School Dilasa Khan Wala (Combined),32.73606,71.58612,Combined,Punjab,1,1,650,540
 31 - 31-Govt.Boys High School Kaloor Sharif (Combined),32.73832690373374,71.26673744599277,Combined,Punjab,1,1,733,631
 224 - 224-Govt.Girls Primary School Chah Daraz Wala (Combined),32.742397294679876,71.52207288808785,Combined,Punjab,1,1,501,441
 33 - 33-Basic Health Unit Kaloor Shrif  (Combined),32.7428728978877,71.26475761439484,Combined,Punjab,2,2,782,827
 223 - 223-Govt Girls Primary School Mohanay Khel Mochh (Combined),32.74398611389046,71.50971772435884,Combined,Punjab,1,1,584,521
 29 - 29-Govt.Girls High School Kaloor Sharif (Combined),32.74418,71.26697,Combined,Punjab,1,1,508,417
 28 - 28-Govt.Girls High School Kaloor Sharif (Combined),32.744182324899946,71.26690162307159,Combined,Punjab,1,1,636,551
 331 - 331-Govt Boys Elementary School Chhoi  (Combined),32.74527624024702,71.8033764003103,Combined,Punjab,1,1,634,516
 219 - 219-Govt. Boys Higher Secondary School Mochh (Combined),32.74611131021593,71.51619564159907,Combined,Punjab,1,1,695,633
 220 - 220-Govt. Girls High School Mochh (Combined),32.747706881034354,71.51332427157719,Combined,Punjab,1,1,260,244
 233 - 233-Govt Girls High School Mochh (Combined),32.747729532858266,71.51326407275445,Combined,Punjab,1,1,574,540
 234 - 234-Union Council Office Mochh  (Combined),32.74847257633736,71.51240856924329,Combined,Punjab,1,1,521,460
 227 - 227-Govt.Girls Community Center Mochh  (Combined),32.74867713260373,71.5133220077473,Combined,Punjab,2,1,785,694
 221 - 221-Office of Markaz Complex Mochh( II) Portion (Combined),32.74876030985622,71.51258502400162,Combined,Punjab,2,2,834,740
 222 - 222-Office of Markaz Complex Mochh( II) Portion (Combined),32.74879,71.5126,Combined,Punjab,1,1,650,606
 228 - 228-Govt Boys Primary School Dargai Khel (Combined),32.75065320126574,71.52705579269494,Combined,Punjab,1,1,629,530
 229 - 229-Govt. Girls Priamry School Dargi Khel (Combined),32.75089,71.52576,Combined,Punjab,1,1,572,498
 344 - 344-Govt.Elementary School Dhok Sheri Khel  (Combined),32.753933026869305,71.85671207882827,Combined,Punjab,1,1,553,488
 332 - 332-Govt Boys Elementary School Sahuwal (Combined),32.755844822330005,71.79513791270217,Combined,Punjab,1,1,547,494
 296 - 296-Govt Boys Elementary School Muhammad Yar wala (Combined),32.76091138826199,71.55916691195762,Combined,Punjab,2,1,776,628
 231 - 231-Govt Boys Primary School Hindal Wala (Combined),32.76186,71.46867,Combined,Punjab,1,1,698,581
 232 - 232-Govt Boys Primary School Hindal Wala (Combined),32.76191635155639,71.46862797330162,Combined,Punjab,1,1,403,321
 40 - 40-Govt.Boys Primary School Khanu Wala  (Combined),32.76244637656589,71.17989799872622,Combined,Punjab,2,1,954,746
 297 - 297-Govt. Girls Primary School Lalay Khel (Muhammad Yar wala) (Combined),32.76325,71.56136,Combined,Punjab,1,1,410,308
 65 - 65-Govt.Girls Primary School Khuda Yar Khel  (Combined),32.765014090087305,71.28708874398997,Combined,Punjab,1,1,536,437
 290 - 290-Govt Boys Primary School Dhedhian Wala  (Combined),32.767074500678184,71.5794365617634,Combined,Punjab,2,1,1201,531
 328 - 328-Govt. Boys Primary School Jhore (Combined),32.76829786711843,71.80092091360385,Combined,Punjab,2,1,772,658
 347 - 347-Govt. Boys Elementary School Dhok Gulbaz Khel (Combined),32.76850484324561,71.84226247241422,Combined,Punjab,1,1,657,590
 291 - 291-Govt. Girls Primary School Wandhi Sunaran Wali (Combined),32.77129,71.57883,Combined,Punjab,1,2,455,813
 343 - 343-Govt Boys Primary School Sher Baz (Combined),32.7715714668933,71.85871843166164,Combined,Punjab,1,1,260,245
 43 - 43-Govt Primary School Miana Wala (Mitha Khatak)  (Combined),32.777052313319295,71.17678584701497,Combined,Punjab,2,1,944,747
 64 - 64-Govt Model Primary School Boostan Abad (Trag) (Girls Portion) (Combined),32.78064900217857,71.29604491336258,Combined,Punjab,1,1,505,433
 346 - 346-Govt.Boys Primary School Dhok Kanjra (Combined),32.78153937037802,71.82991307644261,Combined,Punjab,1,1,456,455
 59 - 59-Govt. High School Trag City (Combined),32.784097654445695,71.29591654807214,Combined,Punjab,1,1,680,615
 329 - 329-Govt. Boys High School Thamay Wali (Combined),32.78515966673681,71.77332618282604,Combined,Punjab,1,1,654,584
 330 - 330-Govt. Boys High School Thamay Wali (Combined),32.78515966673681,71.773356182826,Combined,Punjab,1,1,756,654
 288 - 288-Govt Boys High School Pai Khel-I  (Combined),32.78648957831173,71.57928214853834,Combined,Punjab,2,1,937,669
 289 - 289-Govt Boys High School Pai Khel-II  (Combined),32.78650181768331,71.57924242698823,Combined,Punjab,2,1,855,696
 292 - 292-Govt Boys Primary School Pai Khel  (Combined),32.78676360751842,71.58068478745686,Combined,Punjab,2,1,806,636
 241 - 241-Govt.Boys Primary School Basti Shah Gul Muhammad Wali (Combined),32.78685305562607,71.52569500085193,Combined,Punjab,1,1,629,574
 57 - 57-Govt . Girls High School Trag  (Male),32.78696,71.30032,Male,Punjab,2,0,1479,0
 56 - 56-Govt . Girls High School Trag  (Combined),32.787058248729124,71.30033305243832,Combined,Punjab,1,2,278,1056
 60 - 60-Govt Girls High School Trag (Combined),32.787058248729124,71.3003630524383,Combined,Punjab,2,1,840,712
 58 - 58-Govt. Boys Primary School Manjhi Khel (Trag) (Combined),32.78724357108439,71.29631596461955,Combined,Punjab,1,2,650,1062
 66 - 66-Govt Model Primary School Janti Wala (Boys Portion)  (Combined),32.78975020251004,71.33249746222594,Combined,Punjab,1,1,505,422
 341 - 341-Govt Primary School Dhok Nawab Khel (Combined),32.789944966521716,71.90066262637849,Combined,Punjab,1,1,368,296
 294 - 294-Govt. Girl Primary School Chanan Khel (Combined),32.79115,71.58478,Combined,Punjab,1,1,606,454
 61 - 61-Govt Girls Elementary School Tibba Sharif (Trag) (Combined),32.79183772653741,71.28633144666033,Combined,Punjab,1,1,455,351
 342 - 342-Govt Boys Primary School Dhok Baghha (Combined),32.79228690225728,71.88026968666651,Combined,Punjab,1,1,444,372
 295 - 295-Govt Boys Primary School Chanan Khel (Combined),32.79361607209716,71.58274592476296,Combined,Punjab,2,1,786,588
 41 - 41-Govt.Boys High School Mitha Khatak  (Combined),32.79470090987312,71.15482456686074,Combined,Punjab,2,2,1027,887
 242 - 242-Govt. Girls Primary School Basti Shah Gul Muhammad (Combined),32.79475,71.52577,Combined,Punjab,1,1,577,478
 293 - 293-Govt Girls Elementary School Pai Khel  (Combined),32.79480109277753,71.58309710766038,Combined,Punjab,1,1,571,422
 55 - 55-Govt.Boys Secondary School Trag  (Combined),32.79552,71.31119,Combined,Punjab,1,1,642,503
 54 - 54-Govt.Boys Secondary School Trag  (Combined),32.795534412580174,71.31125063999801,Combined,Punjab,1,1,460,384
 62 - 62-Rural Health Center Trag (Combined),32.79635204347674,71.31156354276904,Combined,Punjab,2,2,880,774
 83 - 83-Govt.Girls Primary School Akram Wala. (Combined),32.800444061378734,71.35534701365378,Combined,Punjab,2,1,828,647
 245 - 245-Govt Boys Elementary School Utra Kalan (Combined),32.80152424262522,71.4662171818388,Combined,Punjab,1,1,639,528
 246 - 246-Govt Boys Elementary School Utra Kalan (Combined),32.80152424262522,71.4662471818388,Combined,Punjab,1,1,648,538
 243 - 243-Govt Boys Elementary School Kot Belian (Combined),32.80245094698147,71.53149482367962,Combined,Punjab,2,2,953,887
 73 - 73-Govt Boys Primary School Samand wala (Combined),32.80455220654648,71.34204546333387,Combined,Punjab,2,1,852,590
 298 - 298-Govt Boys Primary School Chah Abbas Khan Wala (Combined),32.804788699588165,71.54952597860509,Combined,Punjab,2,2,902,720
 345 - 345-Govt.Boys Elementary School Kund (Combined),32.80794946088573,71.82074057390867,Combined,Punjab,1,1,697,680
 53 - 53-Govt.Boys Primary School Noor Abad (Combined),32.811222241850004,71.27227152084099,Combined,Punjab,1,1,530,405
 348 - 348-Govt.Girls Primary School Fasial Colony Chakrala (Combined),32.81174189146136,71.88809723212304,Combined,Punjab,2,2,909,827
 63 - 63-Govt Boys Elementary School Mehr Shah Wali (Combined),32.81287672411951,71.33006089357329,Combined,Punjab,1,1,626,549
 340 - 340-Govt. Boys Secondary School Nawan (Combined),32.813898052419795,71.75485860039993,Combined,Punjab,2,1,870,718
 349 - 349-Govt Girls Primary School Bharanwali (Combined),32.816323770729376,71.93286130438865,Combined,Punjab,1,1,376,328
 82 - 82-Govt.Model Primary School Whandha Sarmat Khel (Girls Portion)  (Combined),32.81741021764185,71.35685364125011,Combined,Punjab,2,1,879,596
 325 - 325-Govt.Girls Primary (Child Friendly) School Mughal Abad  (Combined),32.82211138789141,71.90028317888958,Combined,Punjab,1,1,431,367
 323 - 323-Govt.Girls High School Chakrala (Female),32.82278495659759,71.88541291075569,Female,Punjab,0,3,0,1627
 339 - 339-Govt. Boys Primary School Said Abad (Combined),32.82307225817767,71.7236283497643,Combined,Punjab,1,1,348,286
 350 - 350-Govt Boys Elementary School Dhok Zaman (Combined),32.82325271520895,71.80047809258188,Combined,Punjab,2,2,905,763
 322 - 322-Govt Boys Primary School No. 1 Chakrala ( Male),32.82428819508822,71.88387487986519,Male,Punjab,3,0,1576,0
 324 - 324-Govt.Girls Primary School Farooq-e-Azam  (Combined),32.826396929736795,71.89020881139295,Combined,Punjab,2,2,904,829
 244 - 244-Govt. Boys Primary School Bokhara (Combined),32.82756,71.51974,Combined,Punjab,1,1,222,191
 236 - 236-Govt. Elementary School Dher Umaid Ali Shah-I  (Male),32.83144082453041,71.57556004360775,Male,Punjab,2,0,1048,0
 237 - 237-Govt. Girls Elementary School Dher Umaid Ali Shah (Female),32.83264,71.57098,Female,Punjab,0,2,0,996
 321 - 321-Rural Health Center Chakrala  (Combined),32.83319047651754,71.87824744805634,Combined,Punjab,1,1,574,472
 42 - 42-Govt Girls High School Sultan khel-I  (Combined),32.8363598253535,71.21055693605233,Combined,Punjab,2,2,989,826
 44 - 44-Govt Girls High School Sultan khel-II (Combined),32.8363598253535,71.2105869360523,Combined,Punjab,2,2,854,743
 76 - 76-Govt.Boys Primary School Meliwall (Combined),32.837286214273256,71.2804649972218,Combined,Punjab,1,1,751,481
 77 - 77-Govt. Boys Elementary School Allah Khel  (Combined),32.83789684205064,71.34632166955751,Combined,Punjab,1,1,300,211
 240 - 240-Govt Boys High School Thathi (Combined),32.83804,71.58298,Combined,Punjab,1,1,520,436
 49 - 49-Govt.Girls Primary School Sultan Khel West (Combined),32.83805811346798,71.2024185963664,Combined,Punjab,1,1,605,531
 239 - 239-Govt Boys High School Thathi (Combined),32.83806981201009,71.58295678566375,Combined,Punjab,2,2,905,722
 84 - 84-Govt. Girls Primary School Manzoor Abad (Combined),32.83957,71.36741,Combined,Punjab,1,1,566,422
 326 - 326-Govt Girls Elementary School Dhok Ghazan (Combined),32.842847283293956,71.78250895937904,Combined,Punjab,2,2,923,770
 235 - 235-Govt Boys Primary School Dera Amir Abdullah Khan (Combined),32.84289,71.54182,Combined,Punjab,2,2,963,814
 68 - 68-Govt. Higher Secondary School Kammarmushani  (Combined),32.8445307226642,71.36215669977175,Combined,Punjab,2,1,795,619
 75 - 75-Govt Boys High School - Kamarmushani (Combined),32.84491,71.36333,Combined,Punjab,1,1,578,459
 74 - 74-Govt Boys High School - Kamarmushani (Combined),32.844914545004414,71.36333505029445,Combined,Punjab,1,1,620,563
 78 - 78-Govt Boys Elementary School Murghanwala (Combined),32.845443286422785,71.29808189085026,Combined,Punjab,1,2,724,822
 79 - 79-Govt Boys Elementary School Murghanwala (Combined),32.8455,71.29814,Combined,Punjab,2,1,1128,595
 50 - 50-Govt.Boys Primary School Zangi Khel  (Combined),32.84552630813041,71.2354306776967,Combined,Punjab,1,1,665,535
 51 - 51-Govt. Boys Primary School Muqeem Colony (Combined),32.8457195317039,71.20834800573438,Combined,Punjab,2,2,974,847
 319 - 319-Govt Boys Elementary School Dhok Shianwali  (Combined),32.84632,71.83343,Combined,Punjab,1,1,522,461
 70 - 70-Govt.Model Primary School Sarmat Khel Boys Portion (Kammarmushani) ( Female ),32.846346551691475,71.3602009764279,Female,Punjab,0,3,0,1907
 238 - 238-Basic Health Unit Thathi (Combined),32.84635772644949,71.57723008612761,Combined,Punjab,2,2,928,847
 318 - 318-Govt Boys Elementary School Dhok Shianwali  (Combined),32.846359491651235,71.83325699344775,Combined,Punjab,2,1,777,570
 72 - 72-Govt. College For Women Kamarmushani (Male),32.84638,71.3628,Male,Punjab,2,0,1248,0
 71 - 71-Govt. Model Primary School Sarmat Khel (Girls Portion) Kammarmushani ( Male ),32.846998068147414,71.36029961992391,Male,Punjab,3,0,1580,0
 52 - 52-Basic Health Unit Sultan Khel (Combined),32.84718742579446,71.20752648165697,Combined,Punjab,2,2,913,800
 45 - 45-Govt Boys High School Sultan Khel  (Combined),32.84736577187784,71.2074871569564,Combined,Punjab,1,1,700,616
 46 - 46-Govt. Boys High School Sultan Khel (Combined),32.84739,71.2075,Combined,Punjab,2,1,812,706
 135 - 135-Basic Health Unit Ganda (Combined),32.847615207741036,71.49654679185608,Combined,Punjab,2,2,1108,794
 67 - 67-Govt. Girls Primary School Mohallah Tani Khel Kammar mushani ( Female ),32.84825495894212,71.37145590057526,Female,Punjab,0,3,0,1724
 103 - 103-Govt Model Primary School Burzi (Boys Portion)  (Combined),32.852270693704874,71.40382253581396,Combined,Punjab,1,1,574,476
 108 - 108-Govt. Girls Primary School Sohry Wala (Combined),32.85408,71.3494,Combined,Punjab,2,1,872,694
 47 - 47-Govt.Mines Labour Welfare Higher Secondary School Makarwal  (Combined),32.85652339048308,71.19002981691978,Combined,Punjab,2,1,803,678
 48 - 48-Govt. Boys Mines Labour Welfare Higher Secondary School Makarwal  (Combined),32.85653,71.19003,Combined,Punjab,1,1,537,477
 320 - 320-Govt. Boys Primary School Dhok Kareem Ullah  (Combined),32.86166021431288,71.83644090173372,Combined,Punjab,1,1,451,387
 105 - 105-Govt Girls Elementary School Manda Khel (Combined),32.86402938213675,71.41294612578982,Combined,Punjab,2,2,916,714
 107 - 107-Govt Boy Primary School Gulshan Abad  (Combined),32.865602498950366,71.3339231847074,Combined,Punjab,1,1,707,576
 104 - 104-Govt Boys Secondary School Manda Khel (Combined),32.86897877320003,71.41701281327224,Combined,Punjab,2,2,948,729
 106 - 106-Govt Boys Secondary School Manda Khel (Combined),32.86897877320003,71.4170428132722,Combined,Punjab,2,2,958,774
 92 - 92-Govt Boys Primary School Dhandian Wala  (Combined),32.8699997377062,71.27919525426341,Combined,Punjab,2,1,954,641
 249 - 249-Govt. Boys Elementary School Daud Khel (Female),32.87255,71.56674,Female,Punjab,0,2,0,1473
 251 - 251-Govt. Girls High School Daud Khel (Female),32.87298883315578,71.56917682830247,Female,Punjab,0,3,0,1661
 259 - 259-Govt. Girls High School Duad Khel-I (Female),32.87298883315578,71.5692068283025,Female,Punjab,0,3,0,1688
 260 - 260-Govt. Girls High School Duad Khel-I (Female),32.87306,71.56918,Female,Punjab,0,3,0,1669
 250 - 250-Govt Boys Higher Secondary School Daud Khel-II (Male),32.87320539019187,71.5681169973955,Male,Punjab,3,0,1558,0
 252 - 252-Govt Boys Primary School No.2 Daud Khel (Female),32.87690386586861,71.5684284235495,Female,Punjab,0,2,0,1128
 255 - 255-Govt. Girls Primary School Civil Station Hospital Daud Khel (Male),32.87754,71.57398,Male,Punjab,2,0,937,0
 256 - 256-Veterinary Hospital Daud Khel (Female),32.87810104124892,71.57389505774553,Female,Punjab,0,3,0,1716
 254 - 254-Rural Health Center Daud Khel (Male),32.878395772276896,71.57395984475521,Male,Punjab,2,0,1020,0
 88 - 88-Govt Girls Primary School Jattanwala  (Combined),32.87943693322806,71.21983851677881,Combined,Punjab,1,1,482,434
 257 - 257-Govt. Girls Primary School Small Khel- Duad Khel (Male),32.88040290033068,71.56440933781758,Male,Punjab,2,0,1322,0
 258 - 258-Govt. Girls Primary School Small Khel Daud Khel (Male),32.88042,71.56455,Male,Punjab,2,0,1175,0
 253 - 253-Govt. Boys Primary School No. 3 Daud Khel (Male),32.88070552399264,71.57989763505083,Male,Punjab,2,0,1386,0
 247 - 247-Office of the Town Committee Daud Khel-II (Male),32.881077776257676,71.57973044189357,Male,Punjab,3,0,1527,0
 248 - 248-Govt. Girls Primary School Lamay Khel- Daud Khel (Male),32.8814,71.58002,Male,Punjab,3,0,1816,0
 273 - 273-Govt.Boys Primary School Kher Abad (Combined),32.88202,71.60698,Combined,Punjab,1,1,721,634
 85 - 85-Govt.Boys High School Dallamirwala (Combined),32.88474494604222,71.2865186771813,Combined,Punjab,2,2,851,721
 86 - 86-Govt.Boys High School Dallamirwala (Combined),32.88474494604222,71.2865486771813,Combined,Punjab,2,2,970,820
 87 - 87-Govt.Boys High School Dallamirwala (Combined),32.88474494604222,71.2865786771813,Combined,Punjab,2,1,973,669
 272 - 272-Govt.Model Elementary School Kherabad-I  (Combined),32.884828888251555,71.60347229724982,Combined,Punjab,2,1,882,683
 80 - 80-Center Govt Boys Primary School Malla Khelanwala (Combined),32.88858452299244,71.30800421098743,Combined,Punjab,1,1,487,330
 271 - 271-Govt Boys Primary School Penciline Colony (Iskandar Abad)  (Combined),32.88867116317597,71.58992309275689,Combined,Punjab,1,1,433,390
 134 - 134-Govt Girls Primary School Khudazai (Combined),32.889284406834165,71.438875659027,Combined,Punjab,1,1,675,571
 133 - 133-Govt Boys Elementary School Khudazai (Combined),32.89085447576828,71.43606830191109,Combined,Punjab,2,1,820,708
 109 - 109-Govt. Girls Primary School Golran Wala (Combined),32.891808513780056,71.33311468495936,Combined,Punjab,2,1,966,700
 102 - 102-Govt. Girls Primary School Shah Alam Wala (Combined),32.893318971279136,71.37895187696341,Combined,Punjab,2,2,950,758
 270 - 270-English Medium Higher Secondary School Girls Housing Colony Iskandar Abad (Combined),32.894461893872574,71.58618154577542,Combined,Punjab,1,1,397,409
 327 - 327-Govt Model Primary School Dhok Muhammad Khan (Boys Portion) (Combined),32.89454169628949,71.82180189413444,Combined,Punjab,1,1,579,437
 81 - 81-Govt. Girls Primary School Wandha Musa Khel (Combined),32.89468,71.30114,Combined,Punjab,1,1,694,507
 274 - 274- Model High School Iskandar Abad. (Combined),32.89545808427385,71.5934039222739,Combined,Punjab,2,2,894,823
 99 - 99-Govt.Girls Primary School Bhopanwala (Combined),32.895535344223305,71.35538201763593,Combined,Punjab,2,2,904,728
 275 - 275-English Medium Boys High School Iskandar Abad (Combined),32.89623615238043,71.58846864146982,Combined,Punjab,2,2,915,805
 91 - 91-Govt Model Primary School Karandi  (Combined),32.90421450958604,71.17475189337961,Combined,Punjab,1,1,737,530
 89 - 89-Govt Boys High School Vanjari. (Combined),32.90779,71.23804,Combined,Punjab,2,2,889,747
 90 - 90-Govt Boys High School Vanjari. (Combined),32.90779,71.23807,Combined,Punjab,1,1,412,354
 261 - 261-Union Council Office Daud Khel at Paki Shah Mardan (Combined),32.91557,71.55357,Combined,Punjab,1,1,734,665
 269 - 269-Govt Boys Elementary School Gullan Khel (Combined),32.91560396515043,71.57977460223638,Combined,Punjab,2,2,856,867
 268 - 268-Govt Girls High School Paki Shah Mardan  (Combined),32.91614706443423,71.54657372447777,Combined,Punjab,1,1,698,661
 263 - 263-Govt. Girls Primary School Tokan Wala (Combined),32.91881,71.55853,Combined,Punjab,1,1,784,654
 262 - 262-Govt Boys Primary School Tokan Wala  (Combined),32.919242817880004,71.55991459442184,Combined,Punjab,2,2,1039,901
 101 - 101-Govt.Model  (Girls) Primary School Ghazi Wala  (Combined),32.91965,71.35207,Combined,Punjab,1,1,625,513
 93 - 93-Govt.Boys High School Malla Khel (Combined),32.91969097463576,71.16730615972895,Combined,Punjab,2,1,920,679
 100 - 100-Govt. Boys Primary School Ghazi Wala  (Combined),32.921099771063545,71.35191390712943,Combined,Punjab,1,1,600,500
 120 - 120-Govt Boys High School Udhey Wala (Combined),32.9219068435273,71.37533598093101,Combined,Punjab,1,1,739,669
 95 - 95-Govt Boys Elementary School Girdariwala  (Combined),32.92442,71.21455,Combined,Punjab,1,1,444,353
 94 - 94-Govt Boys Elementary School Girdariwala  (Combined),32.924446197434506,71.21455312356427,Combined,Punjab,2,1,892,715
 130 - 130-Govt Boys Secondary School Jalal Pur ( Male),32.9247,71.48529,Male,Punjab,2,0,994,0
 287 - 287-Govt.Boys Primary School Kiri Jamal (Combined),32.924717232511654,71.67661399307745,Combined,Punjab,1,1,770,644
 129 - 129-Govt Boys Secondary School Jalal Pur ( Male),32.924857896924145,71.48542328920882,Male,Punjab,2,0,1237,0
 131 - 131-Govt Girls High School Jalal Pur (Female),32.926294238302866,71.48390013077471,Female,Punjab,0,2,0,1124
 266 - 266-Govt. Girls Primary School New Paki Shah Mardan (Female),32.92634,71.54816,Female,Punjab,0,2,0,1080
 267 - 267-Govt. Girls Primary School New Paki Shah Mardan (Female),32.92634,71.54819,Female,Punjab,0,2,0,875
 132 - 132-Govt Girls High School Jalal Pur (Female),32.92642,71.48401,Female,Punjab,0,2,0,834
 355 - 355-Railway Station Massan (Combined),32.927371773274,71.71888443918132,Combined,Punjab,1,1,347,267
 264 - 264-Govt Boys High School Paki Shah Mardan-I (Male),32.92808,71.54844,Male,Punjab,2,0,1422,0
 265 - 265-Govt Boys High School Paki Shah Mardan-I (Male),32.92808,71.54847,Male,Punjab,2,0,857,0
 286 - 286-Govt Boys Elementary School Bani Afghan (Combined),32.938031450894925,71.69045224558201,Combined,Punjab,1,1,772,669
 96 - 96-Govt.Boys Primary School Galla Khel. (Combined),32.94395828357397,71.24341172790402,Combined,Punjab,2,1,827,597
 119 - 119-Govt. Boys Elementary School Kotki Beroni (Combined),32.94536,71.41748,Combined,Punjab,1,1,735,619
 118 - 118-Govt. Boys Elementary School Kotki Beroni (Combined),32.94543228630358,71.41734804211289,Combined,Punjab,1,1,627,536
 125 - 125-Union Council Office Kot Chandna  (Combined),32.945707573446704,71.50390671611594,Combined,Punjab,1,1,520,415
 126 - 126-Union Council Office Kot Chandna  (Combined),32.9458,71.50385,Combined,Punjab,1,1,594,483
 127 - 127-Govt Boys Elementary School Kot Chandna (Combined),32.9458331283659,71.50398943263382,Combined,Punjab,2,1,790,633
 128 - 128-Govt Boys Elementary School Kot Chandna (Combined),32.94593,71.50402,Combined,Punjab,1,1,631,532
 285 - 285-Govt.Boys Primary School Bani No.2  (Combined),32.949672789702475,71.68918266877608,Combined,Punjab,1,1,511,419
 280 - 280-Union Council Office Mari Indus (Combined),32.950595268923664,71.56017812078328,Combined,Punjab,1,1,289,271
 282 - 282-Govt. Girls Model Elementary School Mari Indus (Combined),32.95061176530214,71.55958303667742,Combined,Punjab,1,1,410,400
 283 - 283-Govt. Girls Model Elementary School Mari Indus (Combined),32.95063,71.55963,Combined,Punjab,1,1,549,520
 276 - 276-Govt Boys Secondary School Mari Indus (Combined),32.952792149021576,71.55610906228587,Combined,Punjab,1,1,659,583
 277 - 277-Govt Boys Secondary School Mari Indus (Combined),32.95281,71.55605,Combined,Punjab,1,1,606,556
 113 - 113-Govt. Boys Primary School Qureshian Wala.I (Combined),32.9531720909441,71.3514373570942,Combined,Punjab,1,1,775,660
 281 - 281-Govt.Girls Elementary School Mari City  (Combined),32.95782201715453,71.58255564706198,Combined,Punjab,1,1,741,692
 121 - 121-Govt. Boys Elementary School Alif Khel (Combined),32.9580605567112,71.42527166365711,Combined,Punjab,2,1,792,621
 279 - 279-Govt.Boys Elementary School Mari City  (Combined),32.95852,71.58281,Combined,Punjab,1,1,210,216
 278 - 278-Govt.Boys Elementary School Mari City  (Combined),32.95859198548069,71.5828764988701,Combined,Punjab,2,2,893,757
 137 - 137-P.M.D.C Salt Office Lary Adda Kalabagh ( Male),32.95875380869869,71.54215810175214,Male,Punjab,2,0,1255,0
 138 - 138-P.M.D.C Salt Office Lary Adda Kalabagh(Female),32.95875380869869,71.5421881017521,Female,Punjab,0,2,0,1054
 145 - 145-Govt.Boys Elementary School Kalabagh (Female),32.959627627957104,71.53781752756376,Female,Punjab,0,2,0,990
 136 - 136-Veterinary Hospital Lary Adda Kalabagh (Male),32.96054000637227,71.54331870020228,Male,Punjab,2,0,879,0
 97 - 97-Govt Boys Elementary School Chashmia (Combined),32.96238379015163,71.2710193749931,Combined,Punjab,2,2,897,761
 98 - 98-Govt Boys Elementary School Chashmia (Combined),32.96243,71.27099,Combined,Punjab,2,2,1008,796
 139 - 139-Govt Boys Secondary School Kalabagh (Male),32.962822248477984,71.55087810193403,Male,Punjab,2,0,1305,0
 146 - 146-Govt.Boys Secondary School Kalabagh (Male),32.962851225726176,71.55090498942742,Male,Punjab,2,0,905,0
 140 - 140-Govt Boys Secondary School Kalabagh (Male),32.96324,71.55076,Male,Punjab,2,0,908,0
 284 - 284-Govt Boys Primary School Kiri Kaptan -I Bani Afghan (Combined),32.96328253425592,71.70828800817995,Combined,Punjab,1,1,448,349
 141 - 141-Govt.Girls High School Kalabagh (Female),32.96341423249939,71.55495645917236,Female,Punjab,0,3,0,1568
 143 - 143-Govt.Boys Primary School Kareem Abad (Male ),32.964995071370126,71.54173272367801,Male,Punjab,2,0,1485,0
 144 - 144-Govt.Girls Community Model School Kalabag (Female),32.96583842163134,71.5398855585816,Female,Punjab,0,2,0,1350
 170 - 170-Govt Boys Primary School Wandha Kukran Wala (Combined),32.96662894900549,71.58256750386242,Combined,Punjab,1,1,441,400
 111 - 111-Govt. Boys High School Nasri Wala (Female),32.96735,71.33266,Female,Punjab,0,2,0,924
 110 - 110-Govt. Boys High School Nasri Wala (Male),32.967399792118464,71.33270893194906,Male,Punjab,2,0,1109,0
 148 - 148-Govt Boys Primary School Utla Pattan Kalabagh (Female ),32.96762241171425,71.55996909392998,Female,Punjab,0,1,0,568
 112 - 112-Govt Boys Primary School Kutki Thal (Combined),32.96964292298431,71.34220720624484,Combined,Punjab,2,2,971,789
 116 - 116-Govt.Boys Secondary School Chappri (Combined),32.97331,71.38978,Combined,Punjab,2,1,816,493
 115 - 115-Govt.Boys Secondary School Chappri (Combined),32.97332430813695,71.38977116929426,Combined,Punjab,2,2,836,910
 175 - 175-Govt Boys Primary School Potha  (Combined),32.97706843004549,71.52297845934793,Combined,Punjab,1,1,452,380
 172 - 172-Govt. Boys Primary School Potha (Combined),32.97709,71.52302,Combined,Punjab,1,1,571,475
 114 - 114-Govt Boys High School Chapri-I (Primary Portion) (Combined),32.97764590641092,71.39099044073524,Combined,Punjab,1,1,653,539
 117 - 117-Govt.(Center )Primary School Mohabbat Khel (Combined),32.97858496284728,71.42589966913957,Combined,Punjab,1,1,505,417
 122 - 122-Govt Girls Primary School Tola Mangali (Combined),32.97888721984763,71.45026958780173,Combined,Punjab,2,1,746,623
 124 - 124-Govt Hamid Saif (Shaheed) High School Tola Mangali (Combined),32.97926,71.45015,Combined,Punjab,2,1,1150,437
 123 - 123-Govt Hamid Saif (Shaheed) High School Tola Mangali (Combined),32.97931792639666,71.45017266639772,Combined,Punjab,1,2,530,983
 171 - 171-Govt Boys Primary School Chughlan (Combined),32.99407060381051,71.51026907966897,Combined,Punjab,1,1,648,510
 354 - 354-Govt Boys Elementary School Dhok Bharthal (Combined),32.994249681492775,71.74918573824556,Combined,Punjab,1,1,606,479
 173 - 173-Govt.Boys Primary School Kuchh Tunder Khel (Combined),32.997245059515954,71.52723705266031,Combined,Punjab,2,2,808,720
 174 - 174-Govt. Boys Primary School Mela Bangi Khel (Combined),33.00825,71.52591,Combined,Punjab,1,1,328,257
 168 - 168-Govt Boys Primary School Kayaki (Combined),33.05104892399775,71.66890094371874,Combined,Punjab,1,1,339,283
 179 - 179-Govt Girls Primary School Khartoob (Combined),33.05232052538031,71.55312670818746,Combined,Punjab,1,1,465,384
 169 - 169-Govt Boys High School Bore Khoi (Combined),33.05251959605463,71.61908468619123,Combined,Punjab,2,1,745,600
 177 - 177-Govt Boys High School Kacha Bangi Khel (Combined),33.07967092281451,71.5491582183203,Combined,Punjab,1,1,498,364
 178 - 178-Govt Boys High School Kacha Bangi Khel   (Combined),33.07967092281451,71.5491882183203,Combined,Punjab,1,1,591,508
 176 - 176-Govt.Primary School Takhat Reshora (Combined),33.08511509618345,71.46753283861656,Combined,Punjab,1,1,624,500
 181 - 181-Govt.Boys Primary School Vernay (Combined),33.08883817961216,71.58757162603611,Combined,Punjab,1,1,458,390
 162 - 162-Govt Girls Primary School Misar Wala  (Combined),33.13500522793542,71.5613849188156,Combined,Punjab,1,1,526,494
 163 - 163-Govt Boys Primary School Roghan (Combined),33.14300056235052,71.54347730278887,Combined,Punjab,1,1,594,534
 161 - 161-Govt.Girls Primary School Naryub  (Combined),33.15402358004261,71.53404352514939,Combined,Punjab,1,1,527,499
 166 - 166-Govt Girls Primary School Chashmai (Combined),33.15418252252606,71.58390164724709,Combined,Punjab,1,1,580,552
 167 - 167-Govt Boys Primary School Marzina (Combined),33.15627360459708,71.57125433878963,Combined,Punjab,1,1,575,562
 149 - 149-Govt Boys Elementary School Kamar sarr (Combined),33.165035524503246,71.45808624889604,Combined,Punjab,1,1,467,401
 165 - 165-Govt Girls Primary School Chapri Qutab Khel (Combined),33.17158580023427,71.55041974638698,Combined,Punjab,1,1,273,234
 157 - 157-Govt. Boys Elementary School Sunda (Combined),33.17236,71.47511,Combined,Punjab,1,1,561,637
 156 - 156-Govt. Boys Elementary School Sunda (Combined),33.17241205738049,71.47503308553267,Combined,Punjab,1,1,625,419
 150 - 150-Govt. Girls Elementary School Sangeeni (Combined),33.17819,71.46056,Combined,Punjab,1,1,718,616
 151 - 151-Govt Boys Elementary School Matukhel (Combined),33.18383057010918,71.45951641319323,Combined,Punjab,2,2,829,753
 154 - 154-Govt Girls High School Toorangi Gharbi (Combined),33.18424,71.48039,Combined,Punjab,2,1,783,625
 155 - 155-Govt Boys Primary School Toorangi Gharbi (Combined),33.18541,71.48124,Combined,Punjab,1,1,494,470
 180 - 180-Govt.Primary School Chapri Sahu Khel (Combined),33.186471334661874,71.5834076490052,Combined,Punjab,1,1,659,559
 159 - 159-Govt. High School Tola Bangi Khel (Combined),33.18737530212413,71.4993292705861,Combined,Punjab,2,1,724,631
 158 - 158-Govt Girls Elementary School Tola Bangi Khel (Combined),33.191147249825896,71.4985122005822,Combined,Punjab,2,1,768,683
 164 - 164-Govt Boys Primary School Dargha. (Combined),33.1984838420749,71.54113260400811,Combined,Punjab,1,1,403,371
 152 - 152-Govt.Girls Primary School Manja Ghundi (Combined),33.20936160267058,71.47469644128344,Combined,Punjab,2,1,758,662
 153 - 153-Govt. Boys Primary School Manja Ghundi (Combined),33.21267,71.47895,Combined,Punjab,1,1,627,512
 160 - 160-Govt.Boys Primary School Burhi Bangi Khel (Combined),33.2170926071042,71.53554367084175,Combined,Punjab,1,1,435,379
